{
	"regioncentercoordinateslist":
	[
		{
			"RegionID":"253",
			"RegionName":"Al Arish, Egypt",
			"CenterLatitude":"31.124743",
			"CenterLongitude":"33.819649"
		},
		{
			"RegionID":"254",
			"RegionName":"Annaba, Algeria",
			"CenterLatitude":"36.913933",
			"CenterLongitude":"7.741176"
		},
		{
			"RegionID":"255",
			"RegionName":"Aranuka, Kiribati",
			"CenterLatitude":"0.159000",
			"CenterLongitude":"173.586502"
		},
		{
			"RegionID":"257",
			"RegionName":"Al Ain, United Arab Emirates",
			"CenterLatitude":"24.231657",
			"CenterLongitude":"55.740162"
		},
		{
			"RegionID":"258",
			"RegionName":"Anapa, Russia",
			"CenterLatitude":"44.889820",
			"CenterLongitude":"37.323132"
		},
		{
			"RegionID":"259",
			"RegionName":"Aarhus (and vicinity), Denmark",
			"CenterLatitude":"56.156479",
			"CenterLongitude":"10.210120"
		},
		{
			"RegionID":"260",
			"RegionName":"Altay, China",
			"CenterLatitude":"47.852016",
			"CenterLongitude":"87.968437"
		},
		{
			"RegionID":"262",
			"RegionName":"Abakan, Russia",
			"CenterLatitude":"53.713905",
			"CenterLongitude":"91.486000"
		},
		{
			"RegionID":"264",
			"RegionName":"Allentown, Pennsylvania, United States of America",
			"CenterLatitude":"40.602180",
			"CenterLongitude":"-75.471695"
		},
		{
			"RegionID":"265",
			"RegionName":"Abaiang, Kiribati",
			"CenterLatitude":"1.825500",
			"CenterLongitude":"172.901993"
		},
		{
			"RegionID":"266",
			"RegionName":"Abilene (and vicinity), Texas, United States of America",
			"CenterLatitude":"32.449680",
			"CenterLongitude":"-99.734268"
		},
		{
			"RegionID":"267",
			"RegionName":"Abidjan, Cote d'Ivoire",
			"CenterLatitude":"5.327693",
			"CenterLongitude":"-4.023339"
		},
		{
			"RegionID":"268",
			"RegionName":"Kebri Dar, Ethiopia",
			"CenterLatitude":"6.728388",
			"CenterLongitude":"44.286854"
		},
		{
			"RegionID":"269",
			"RegionName":"Ambler, Alaska, United States of America",
			"CenterLatitude":"67.095634",
			"CenterLongitude":"-157.899292"
		},
		{
			"RegionID":"270",
			"RegionName":"Bamaga, Queensland, Australia",
			"CenterLatitude":"-10.856137",
			"CenterLongitude":"142.432343"
		},
		{
			"RegionID":"271",
			"RegionName":"Albuquerque, New Mexico, United States of America",
			"CenterLatitude":"35.083679",
			"CenterLongitude":"-106.644653"
		},
		{
			"RegionID":"272",
			"RegionName":"Aberdeen, South Dakota, United States of America",
			"CenterLatitude":"45.479618",
			"CenterLongitude":"-98.534592"
		},
		{
			"RegionID":"273",
			"RegionName":"Abu Simbel, Egypt",
			"CenterLatitude":"22.334728",
			"CenterLongitude":"31.602713"
		},
		{
			"RegionID":"274",
			"RegionName":"Al Baha, Saudi Arabia",
			"CenterLatitude":"20.015633",
			"CenterLongitude":"41.462749"
		},
		{
			"RegionID":"275",
			"RegionName":"Abuja, Nigeria",
			"CenterLatitude":"9.057622",
			"CenterLongitude":"7.392182"
		},
		{
			"RegionID":"276",
			"RegionName":"Albury, New South Wales, Australia",
			"CenterLatitude":"-36.082504",
			"CenterLongitude":"146.912552"
		},
		{
			"RegionID":"277",
			"RegionName":"Albany (and vicinity), Georgia, United States of America",
			"CenterLatitude":"31.576950",
			"CenterLongitude":"-84.151199"
		},
		{
			"RegionID":"278",
			"RegionName":"Aberdeen, Scotland, United Kingdom",
			"CenterLatitude":"57.147018",
			"CenterLongitude":"-2.097490"
		},
		{
			"RegionID":"279",
			"RegionName":"Acapulco, Guerrero, Mexico",
			"CenterLatitude":"16.849199",
			"CenterLongitude":"-99.902000"
		},
		{
			"RegionID":"280",
			"RegionName":"Accra (and vicinity), Ghana",
			"CenterLatitude":"5.603093",
			"CenterLongitude":"-0.219895"
		},
		{
			"RegionID":"281",
			"RegionName":"Acandi, Colombia",
			"CenterLatitude":"8.446742",
			"CenterLongitude":"-77.279564"
		},
		{
			"RegionID":"282",
			"RegionName":"Lanzarote, Spain",
			"CenterLatitude":"29.063347",
			"CenterLongitude":"-13.628341"
		},
		{
			"RegionID":"283",
			"RegionName":"Altenrhein, Thal, Switzerland",
			"CenterLatitude":"47.491062",
			"CenterLongitude":"9.554854"
		},
		{
			"RegionID":"284",
			"RegionName":"Alderney, Channel Islands, United Kingdom",
			"CenterLatitude":"49.717709",
			"CenterLongitude":"-2.197935"
		},
		{
			"RegionID":"285",
			"RegionName":"Nantucket, Massachusetts, United States of America",
			"CenterLatitude":"41.283760",
			"CenterLongitude":"-70.097717"
		},
		{
			"RegionID":"286",
			"RegionName":"Waco (and vicinity), Texas, United States of America",
			"CenterLatitude":"31.556782",
			"CenterLongitude":"-97.131920"
		},
		{
			"RegionID":"287",
			"RegionName":"Eureka (and vicinity), California, United States of America",
			"CenterLatitude":"40.802071",
			"CenterLongitude":"-124.168159"
		},
		{
			"RegionID":"288",
			"RegionName":"Adana, Turkey",
			"CenterLatitude":"36.985649",
			"CenterLongitude":"35.325844"
		},
		{
			"RegionID":"289",
			"RegionName":"Addis Ababa (and vicinity), Ethiopia",
			"CenterLatitude":"8.994484",
			"CenterLongitude":"38.771084"
		},
		{
			"RegionID":"291",
			"RegionName":"Adak Island, Alaska, United States of America",
			"CenterLatitude":"51.778774",
			"CenterLongitude":"-176.712006"
		},
		{
			"RegionID":"292",
			"RegionName":"Adelaide, South Australia, Australia",
			"CenterLatitude":"-34.920490",
			"CenterLongitude":"138.598587"
		},
		{
			"RegionID":"293",
			"RegionName":"Kodiak, Alaska, United States of America",
			"CenterLatitude":"57.789810",
			"CenterLongitude":"-152.407440"
		},
		{
			"RegionID":"294",
			"RegionName":"Alldays, South Africa",
			"CenterLatitude":"-22.678181",
			"CenterLongitude":"29.105959"
		},
		{
			"RegionID":"296",
			"RegionName":"Abemama, Kiribati",
			"CenterLatitude":"0.403113",
			"CenterLongitude":"173.848755"
		},
		{
			"RegionID":"299",
			"RegionName":"Adler, Russia",
			"CenterLatitude":"43.440502",
			"CenterLongitude":"39.944092"
		},
		{
			"RegionID":"301",
			"RegionName":"Allakaket, Alaska, United States of America",
			"CenterLatitude":"66.558495",
			"CenterLongitude":"-152.652664"
		},
		{
			"RegionID":"302",
			"RegionName":"Akureyri, Iceland",
			"CenterLatitude":"65.681770",
			"CenterLongitude":"-18.090521"
		},
		{
			"RegionID":"303",
			"RegionName":"San Rafael, Argentina",
			"CenterLatitude":"-34.651611",
			"CenterLongitude":"-68.452377"
		},
		{
			"RegionID":"304",
			"RegionName":"Alta Floresta, Brazil",
			"CenterLatitude":"-9.929124",
			"CenterLongitude":"-55.898724"
		},
		{
			"RegionID":"305",
			"RegionName":"Agadir, Morocco",
			"CenterLatitude":"30.475063",
			"CenterLongitude":"-9.617333"
		},
		{
			"RegionID":"306",
			"RegionName":"Augsburg, Germany",
			"CenterLatitude":"48.368950",
			"CenterLongitude":"10.897840"
		},
		{
			"RegionID":"307",
			"RegionName":"Agen, France",
			"CenterLatitude":"44.205299",
			"CenterLongitude":"0.620620"
		},
		{
			"RegionID":"308",
			"RegionName":"Helsingborg, Sweden",
			"CenterLatitude":"56.046719",
			"CenterLongitude":"12.694717"
		},
		{
			"RegionID":"309",
			"RegionName":"Aguni, Japan",
			"CenterLatitude":"26.584385",
			"CenterLongitude":"127.228081"
		},
		{
			"RegionID":"310",
			"RegionName":"Wanigela, Papua New Guinea",
			"CenterLatitude":"-10.044649",
			"CenterLongitude":"148.217850"
		},
		{
			"RegionID":"311",
			"RegionName":"Angoon, Alaska, United States of America",
			"CenterLatitude":"57.416832",
			"CenterLongitude":"-134.301331"
		},
		{
			"RegionID":"312",
			"RegionName":"Malaga, Spain",
			"CenterLatitude":"36.719460",
			"CenterLongitude":"-4.421420"
		},
		{
			"RegionID":"313",
			"RegionName":"Agra, India",
			"CenterLatitude":"27.181286",
			"CenterLongitude":"78.002266"
		},
		{
			"RegionID":"314",
			"RegionName":"Augusta, Georgia, United States of America",
			"CenterLatitude":"33.476009",
			"CenterLongitude":"-81.967361"
		},
		{
			"RegionID":"315",
			"RegionName":"Aguascalientes, Aguascalientes, Mexico",
			"CenterLatitude":"21.900732",
			"CenterLongitude":"-102.300163"
		},
		{
			"RegionID":"316",
			"RegionName":"Acarigua, Venezuela",
			"CenterLatitude":"9.570198",
			"CenterLongitude":"-69.195702"
		},
		{
			"RegionID":"317",
			"RegionName":"Agatti Island, India",
			"CenterLatitude":"10.847613",
			"CenterLongitude":"72.177437"
		},
		{
			"RegionID":"318",
			"RegionName":"Aggeneys, South Africa",
			"CenterLatitude":"-29.204975",
			"CenterLongitude":"18.847075"
		},
		{
			"RegionID":"319",
			"RegionName":"Abha, Saudi Arabia",
			"CenterLatitude":"18.243170",
			"CenterLongitude":"42.534264"
		},
		{
			"RegionID":"320",
			"RegionName":"Athens (and vicinity), Georgia, United States of America",
			"CenterLatitude":"33.958328",
			"CenterLongitude":"-83.376228"
		},
		{
			"RegionID":"321",
			"RegionName":"Alghero, Italy",
			"CenterLatitude":"40.557739",
			"CenterLongitude":"8.315260"
		},
		{
			"RegionID":"322",
			"RegionName":"Al Hoceima, Morocco",
			"CenterLatitude":"35.240437",
			"CenterLongitude":"-3.929738"
		},
		{
			"RegionID":"323",
			"RegionName":"Alliance, Nebraska, United States of America",
			"CenterLatitude":"42.064522",
			"CenterLongitude":"-102.832916"
		},
		{
			"RegionID":"325",
			"RegionName":"Anderson, Indiana, United States of America",
			"CenterLatitude":"40.102200",
			"CenterLongitude":"-85.678177"
		},
		{
			"RegionID":"326",
			"RegionName":"Aiome, Papua New Guinea",
			"CenterLatitude":"-5.143868",
			"CenterLongitude":"144.725525"
		},
		{
			"RegionID":"327",
			"RegionName":"Ailuk, Marshall Islands",
			"CenterLatitude":"10.217000",
			"CenterLongitude":"169.983002"
		},
		{
			"RegionID":"328",
			"RegionName":"Wainwright, Alaska, United States of America",
			"CenterLatitude":"70.642914",
			"CenterLongitude":"-160.028397"
		},
		{
			"RegionID":"329",
			"RegionName":"Aripuana, Brazil",
			"CenterLatitude":"-9.987401",
			"CenterLongitude":"-59.297653"
		},
		{
			"RegionID":"330",
			"RegionName":"Arorae Island, Kiribati",
			"CenterLatitude":"-2.642000",
			"CenterLongitude":"176.820007"
		},
		{
			"RegionID":"331",
			"RegionName":"Aitutaki, Cook Islands",
			"CenterLatitude":"-18.860760",
			"CenterLongitude":"-159.783249"
		},
		{
			"RegionID":"332",
			"RegionName":"Atiu, Cook Islands",
			"CenterLatitude":"-19.998501",
			"CenterLongitude":"-158.112000"
		},
		{
			"RegionID":"333",
			"RegionName":"Atlantic City, New Jersey, United States of America",
			"CenterLatitude":"39.363129",
			"CenterLongitude":"-74.426170"
		},
		{
			"RegionID":"334",
			"RegionName":"Ajaccio, France",
			"CenterLatitude":"41.918617",
			"CenterLongitude":"8.736919"
		},
		{
			"RegionID":"335",
			"RegionName":"Jouf, Saudi Arabia",
			"CenterLatitude":"29.785988",
			"CenterLongitude":"39.888924"
		},
		{
			"RegionID":"336",
			"RegionName":"Anjouan, Comoros",
			"CenterLatitude":"-12.231456",
			"CenterLongitude":"44.374889"
		},
		{
			"RegionID":"337",
			"RegionName":"Arvidsjaur, Sweden",
			"CenterLatitude":"65.680038",
			"CenterLongitude":"19.129124"
		},
		{
			"RegionID":"338",
			"RegionName":"Aracaju, Brazil",
			"CenterLatitude":"-10.913095",
			"CenterLongitude":"-37.049324"
		},
		{
			"RegionID":"340",
			"RegionName":"Atka, Alaska, United States of America",
			"CenterLatitude":"52.197502",
			"CenterLongitude":"-174.192200"
		},
		{
			"RegionID":"341",
			"RegionName":"Akieni, Gabon",
			"CenterLatitude":"-1.183141",
			"CenterLongitude":"13.897154"
		},
		{
			"RegionID":"342",
			"RegionName":"Kufrah, Libya",
			"CenterLatitude":"24.155573",
			"CenterLongitude":"23.249777"
		},
		{
			"RegionID":"343",
			"RegionName":"Akiak, Alaska, United States of America",
			"CenterLatitude":"60.923309",
			"CenterLongitude":"-161.248077"
		},
		{
			"RegionID":"344",
			"RegionName":"Asahikawa, Japan",
			"CenterLatitude":"43.758007",
			"CenterLongitude":"142.369904"
		},
		{
			"RegionID":"345",
			"RegionName":"Akhiok, Alaska, United States of America",
			"CenterLatitude":"56.945415",
			"CenterLongitude":"-154.172119"
		},
		{
			"RegionID":"346",
			"RegionName":"Auckland, New Zealand",
			"CenterLatitude":"-36.849060",
			"CenterLongitude":"174.765381"
		},
		{
			"RegionID":"347",
			"RegionName":"King Salmon, Alaska, United States of America",
			"CenterLatitude":"58.702011",
			"CenterLongitude":"-156.676636"
		},
		{
			"RegionID":"348",
			"RegionName":"Anaktuvuk Pass, Alaska, United States of America",
			"CenterLatitude":"68.149452",
			"CenterLongitude":"-151.717041"
		},
		{
			"RegionID":"350",
			"RegionName":"Auki, Solomon Islands",
			"CenterLatitude":"-8.771000",
			"CenterLongitude":"160.702499"
		},
		{
			"RegionID":"351",
			"RegionName":"Aksu, China",
			"CenterLatitude":"41.171001",
			"CenterLongitude":"80.277000"
		},
		{
			"RegionID":"352",
			"RegionName":"Akulivik, Quebec, Canada",
			"CenterLatitude":"60.878574",
			"CenterLongitude":"-77.880440"
		},
		{
			"RegionID":"353",
			"RegionName":"Sittwe, Myanmar",
			"CenterLatitude":"20.138000",
			"CenterLongitude":"92.897499"
		},
		{
			"RegionID":"354",
			"RegionName":"Almaty, Kazakhstan",
			"CenterLatitude":"43.241741",
			"CenterLongitude":"76.947540"
		},
		{
			"RegionID":"355",
			"RegionName":"Albany, New York, United States of America",
			"CenterLatitude":"42.650249",
			"CenterLongitude":"-73.753578"
		},
		{
			"RegionID":"356",
			"RegionName":"Alicante, Spain",
			"CenterLatitude":"38.346031",
			"CenterLongitude":"-0.484080"
		},
		{
			"RegionID":"358",
			"RegionName":"Alta, Norway",
			"CenterLatitude":"70.015274",
			"CenterLongitude":"23.220158"
		},
		{
			"RegionID":"359",
			"RegionName":"Algiers, Algeria",
			"CenterLatitude":"36.739101",
			"CenterLongitude":"3.068917"
		},
		{
			"RegionID":"360",
			"RegionName":"Albany, Western Australia, Australia",
			"CenterLatitude":"-35.027023",
			"CenterLongitude":"117.883835"
		},
		{
			"RegionID":"361",
			"RegionName":"Alexander Bay, South Africa",
			"CenterLatitude":"-28.622614",
			"CenterLongitude":"16.481438"
		},
		{
			"RegionID":"362",
			"RegionName":"Asela, Ethiopia",
			"CenterLatitude":"7.948719",
			"CenterLongitude":"39.144329"
		},
		{
			"RegionID":"363",
			"RegionName":"Alamogordo, New Mexico, United States of America",
			"CenterLatitude":"32.899799",
			"CenterLongitude":"-105.960228"
		},
		{
			"RegionID":"364",
			"RegionName":"Waterloo (and vicinity), Iowa, United States of America",
			"CenterLatitude":"42.493080",
			"CenterLongitude":"-92.341507"
		},
		{
			"RegionID":"366",
			"RegionName":"Alamosa, Colorado, United States of America",
			"CenterLatitude":"37.468208",
			"CenterLongitude":"-105.865387"
		},
		{
			"RegionID":"368",
			"RegionName":"Walla Walla, Washington, United States of America",
			"CenterLatitude":"46.105602",
			"CenterLongitude":"-118.346321"
		},
		{
			"RegionID":"369",
			"RegionName":"Alexandria, Egypt",
			"CenterLatitude":"31.046793",
			"CenterLongitude":"29.774250"
		},
		{
			"RegionID":"370",
			"RegionName":"Alitak, Alaska, United States of America",
			"CenterLatitude":"56.893909",
			"CenterLongitude":"-154.286316"
		},
		{
			"RegionID":"371",
			"RegionName":"Amarillo (and vicinity), Texas, United States of America",
			"CenterLatitude":"35.207600",
			"CenterLongitude":"-101.835762"
		},
		{
			"RegionID":"372",
			"RegionName":"Ahmedabad, India",
			"CenterLatitude":"23.022612",
			"CenterLongitude":"72.571335"
		},
		{
			"RegionID":"373",
			"RegionName":"Arba Minch, Ethiopia",
			"CenterLatitude":"6.035181",
			"CenterLongitude":"37.564308"
		},
		{
			"RegionID":"374",
			"RegionName":"Mataram, Indonesia",
			"CenterLatitude":"-8.587505",
			"CenterLongitude":"116.129707"
		},
		{
			"RegionID":"375",
			"RegionName":"Amman (and vicinity), Jordan",
			"CenterLatitude":"31.988249",
			"CenterLongitude":"35.912960"
		},
		{
			"RegionID":"376",
			"RegionName":"Ampanihy, Madagascar",
			"CenterLatitude":"-24.702053",
			"CenterLongitude":"44.743355"
		},
		{
			"RegionID":"377",
			"RegionName":"Ambon, Indonesia",
			"CenterLatitude":"-3.697635",
			"CenterLongitude":"128.189819"
		},
		{
			"RegionID":"378",
			"RegionName":"Amsterdam, Netherlands",
			"CenterLatitude":"52.373039",
			"CenterLongitude":"4.892370"
		},
		{
			"RegionID":"379",
			"RegionName":"Ambatomainty, Madagascar",
			"CenterLatitude":"-17.752439",
			"CenterLongitude":"45.771984"
		},
		{
			"RegionID":"380",
			"RegionName":"Anniston, Alabama, United States of America",
			"CenterLatitude":"33.657051",
			"CenterLongitude":"-85.829697"
		},
		{
			"RegionID":"381",
			"RegionName":"Anchorage, Alaska, United States of America",
			"CenterLatitude":"61.217567",
			"CenterLongitude":"-149.892426"
		},
		{
			"RegionID":"382",
			"RegionName":"Antofagasta, Chile",
			"CenterLatitude":"-23.651777",
			"CenterLongitude":"-70.396736"
		},
		{
			"RegionID":"383",
			"RegionName":"Angouleme, France",
			"CenterLatitude":"45.648899",
			"CenterLongitude":"0.156750"
		},
		{
			"RegionID":"384",
			"RegionName":"Aniak, Alaska, United States of America",
			"CenterLatitude":"61.582134",
			"CenterLongitude":"-159.554688"
		},
		{
			"RegionID":"385",
			"RegionName":"Zanaga, Republic of the Congo",
			"CenterLatitude":"-2.852913",
			"CenterLongitude":"13.828632"
		},
		{
			"RegionID":"386",
			"RegionName":"Ankara, Turkey",
			"CenterLatitude":"39.941956",
			"CenterLongitude":"32.854652"
		},
		{
			"RegionID":"387",
			"RegionName":"Antalaha, Madagascar",
			"CenterLatitude":"-14.900563",
			"CenterLongitude":"50.277954"
		},
		{
			"RegionID":"388",
			"RegionName":"Antwerp, Belgium",
			"CenterLatitude":"51.221268",
			"CenterLongitude":"4.397140"
		},
		{
			"RegionID":"389",
			"RegionName":"St. John's, Antigua, Antigua and Barbuda",
			"CenterLatitude":"17.139244",
			"CenterLongitude":"-61.856339"
		},
		{
			"RegionID":"390",
			"RegionName":"Anvik, Alaska, United States of America",
			"CenterLatitude":"62.643627",
			"CenterLongitude":"-160.238434"
		},
		{
			"RegionID":"391",
			"RegionName":"Andenes, Andoy, Norway",
			"CenterLatitude":"69.312881",
			"CenterLongitude":"16.100636"
		},
		{
			"RegionID":"392",
			"RegionName":"Altenburg, Germany",
			"CenterLatitude":"50.977020",
			"CenterLongitude":"12.437294"
		},
		{
			"RegionID":"393",
			"RegionName":"Anshan, China",
			"CenterLatitude":"41.123341",
			"CenterLongitude":"122.991180"
		},
		{
			"RegionID":"394",
			"RegionName":"Ancona, Italy",
			"CenterLatitude":"43.618797",
			"CenterLongitude":"13.510880"
		},
		{
			"RegionID":"395",
			"RegionName":"Aomori, Japan",
			"CenterLatitude":"40.827881",
			"CenterLongitude":"140.735855"
		},
		{
			"RegionID":"396",
			"RegionName":"Karpathos, Greece",
			"CenterLatitude":"35.507957",
			"CenterLongitude":"27.213921"
		},
		{
			"RegionID":"397",
			"RegionName":"Paso de los Libres, Argentina",
			"CenterLatitude":"-29.690182",
			"CenterLongitude":"-57.134636"
		},
		{
			"RegionID":"398",
			"RegionName":"Altoona, Pennsylvania, United States of America",
			"CenterLatitude":"40.515720",
			"CenterLongitude":"-78.400833"
		},
		{
			"RegionID":"399",
			"RegionName":"Alor Setar, Malaysia",
			"CenterLatitude":"6.125424",
			"CenterLongitude":"100.366257"
		},
		{
			"RegionID":"401",
			"RegionName":"Naples, Florida, United States of America",
			"CenterLatitude":"26.141720",
			"CenterLongitude":"-81.796188"
		},
		{
			"RegionID":"402",
			"RegionName":"Nampula, Mozambique",
			"CenterLatitude":"-15.117234",
			"CenterLongitude":"39.256599"
		},
		{
			"RegionID":"403",
			"RegionName":"Alpena, Michigan, United States of America",
			"CenterLatitude":"45.082394",
			"CenterLongitude":"-83.470177"
		},
		{
			"RegionID":"404",
			"RegionName":"Apartado, Colombia",
			"CenterLatitude":"7.902519",
			"CenterLongitude":"-76.578499"
		},
		{
			"RegionID":"405",
			"RegionName":"Asapa, Papua New Guinea",
			"CenterLatitude":"-5.025652",
			"CenterLongitude":"144.766769"
		},
		{
			"RegionID":"406",
			"RegionName":"Apia, Samoa",
			"CenterLatitude":"-13.830404",
			"CenterLongitude":"-171.770142"
		},
		{
			"RegionID":"407",
			"RegionName":"Anqing, China",
			"CenterLatitude":"30.620399",
			"CenterLongitude":"116.598122"
		},
		{
			"RegionID":"408",
			"RegionName":"Qaisumah, Saudi Arabia",
			"CenterLatitude":"28.301430",
			"CenterLongitude":"46.163754"
		},
		{
			"RegionID":"409",
			"RegionName":"Aqaba, Jordan",
			"CenterLatitude":"29.530668",
			"CenterLongitude":"35.004757"
		},
		{
			"RegionID":"410",
			"RegionName":"Arequipa, Peru",
			"CenterLatitude":"-16.403063",
			"CenterLongitude":"-71.541122"
		},
		{
			"RegionID":"411",
			"RegionName":"Arctic Village, Alaska, United States of America",
			"CenterLatitude":"68.122261",
			"CenterLongitude":"-145.544434"
		},
		{
			"RegionID":"412",
			"RegionName":"Alor, Indonesia",
			"CenterLatitude":"-8.293309",
			"CenterLongitude":"124.757469"
		},
		{
			"RegionID":"413",
			"RegionName":"Arkhangelsk, Russia",
			"CenterLatitude":"64.516472",
			"CenterLongitude":"40.701107"
		},
		{
			"RegionID":"414",
			"RegionName":"Arica, Chile",
			"CenterLatitude":"-18.614136",
			"CenterLongitude":"-70.217392"
		},
		{
			"RegionID":"415",
			"RegionName":"Armidale, New South Wales, Australia",
			"CenterLatitude":"-30.516468",
			"CenterLongitude":"151.660889"
		},
		{
			"RegionID":"416",
			"RegionName":"Aragip, Papua New Guinea",
			"CenterLatitude":"-4.117023",
			"CenterLongitude":"142.920624"
		},
		{
			"RegionID":"417",
			"RegionName":"Watertown, New York, United States of America",
			"CenterLatitude":"43.974663",
			"CenterLongitude":"-75.909607"
		},
		{
			"RegionID":"418",
			"RegionName":"Minocqua, Wisconsin, United States of America",
			"CenterLatitude":"45.870659",
			"CenterLongitude":"-89.709915"
		},
		{
			"RegionID":"419",
			"RegionName":"N Zeto, Angola",
			"CenterLatitude":"-7.239358",
			"CenterLongitude":"12.864717"
		},
		{
			"RegionID":"421",
			"RegionName":"Ashgabat, Turkmenistan",
			"CenterLatitude":"37.934547",
			"CenterLongitude":"58.428955"
		},
		{
			"RegionID":"422",
			"RegionName":"Andros Town, Andros Island, Bahamas",
			"CenterLatitude":"24.723598",
			"CenterLongitude":"-77.784744"
		},
		{
			"RegionID":"423",
			"RegionName":"Aspen, Colorado, United States of America",
			"CenterLatitude":"39.189079",
			"CenterLongitude":"-106.819748"
		},
		{
			"RegionID":"424",
			"RegionName":"Astrakhan, Russia",
			"CenterLatitude":"46.349625",
			"CenterLongitude":"48.033932"
		},
		{
			"RegionID":"425",
			"RegionName":"Amami, Japan",
			"CenterLatitude":"28.347694",
			"CenterLongitude":"129.518448"
		},
		{
			"RegionID":"426",
			"RegionName":"Yamoussoukro, Cote d'Ivoire",
			"CenterLatitude":"6.813636",
			"CenterLongitude":"-5.264895"
		},
		{
			"RegionID":"427",
			"RegionName":"Asmara, Eritrea",
			"CenterLatitude":"15.327526",
			"CenterLongitude":"38.927029"
		},
		{
			"RegionID":"428",
			"RegionName":"Asosa, Ethiopia",
			"CenterLatitude":"10.067499",
			"CenterLongitude":"34.536110"
		},
		{
			"RegionID":"429",
			"RegionName":"Alice Springs, Northern Territory, Australia",
			"CenterLatitude":"-23.699490",
			"CenterLongitude":"133.881454"
		},
		{
			"RegionID":"430",
			"RegionName":"Kayseri, Turkey",
			"CenterLatitude":"38.780727",
			"CenterLongitude":"35.583530"
		},
		{
			"RegionID":"431",
			"RegionName":"Astoria, Oregon, United States of America",
			"CenterLatitude":"46.189049",
			"CenterLongitude":"-123.830963"
		},
		{
			"RegionID":"432",
			"RegionName":"Asuncion (and vicinity), Paraguay",
			"CenterLatitude":"-25.287104",
			"CenterLongitude":"-57.442310"
		},
		{
			"RegionID":"434",
			"RegionName":"Aswan, Egypt",
			"CenterLatitude":"24.062040",
			"CenterLongitude":"32.904854"
		},
		{
			"RegionID":"436",
			"RegionName":"Arthur's Town, Bahamas",
			"CenterLatitude":"24.621990",
			"CenterLongitude":"-75.682510"
		},
		{
			"RegionID":"437",
			"RegionName":"Atoifi, Solomon Islands",
			"CenterLatitude":"-8.865000",
			"CenterLongitude":"161.020004"
		},
		{
			"RegionID":"438",
			"RegionName":"Athens, Greece",
			"CenterLatitude":"37.977009",
			"CenterLongitude":"23.726170"
		},
		{
			"RegionID":"439",
			"RegionName":"Artigas, Uruguay",
			"CenterLatitude":"-30.407206",
			"CenterLongitude":"-56.476952"
		},
		{
			"RegionID":"440",
			"RegionName":"Atqasuk, Alaska, United States of America",
			"CenterLatitude":"70.477112",
			"CenterLongitude":"-157.430145"
		},
		{
			"RegionID":"441",
			"RegionName":"Atlanta, Georgia, United States of America",
			"CenterLatitude":"33.756260",
			"CenterLongitude":"-84.388489"
		},
		{
			"RegionID":"442",
			"RegionName":"Altamira, Brazil",
			"CenterLatitude":"-3.204206",
			"CenterLongitude":"-52.199745"
		},
		{
			"RegionID":"443",
			"RegionName":"Namatanai, Papua New Guinea",
			"CenterLatitude":"-3.663097",
			"CenterLongitude":"152.425995"
		},
		{
			"RegionID":"444",
			"RegionName":"Amritsar, India",
			"CenterLatitude":"31.665468",
			"CenterLongitude":"74.862457"
		},
		{
			"RegionID":"446",
			"RegionName":"Atmautluak, Alaska, United States of America",
			"CenterLatitude":"60.829327",
			"CenterLongitude":"-162.348419"
		},
		{
			"RegionID":"447",
			"RegionName":"Appleton - Lake Winnebago (and vicinity), Wisconsin, United States of America",
			"CenterLatitude":"44.047379",
			"CenterLongitude":"-88.440392"
		},
		{
			"RegionID":"448",
			"RegionName":"Watertown, South Dakota, United States of America",
			"CenterLatitude":"44.936069",
			"CenterLongitude":"-97.090454"
		},
		{
			"RegionID":"449",
			"RegionName":"Assiut, Egypt",
			"CenterLatitude":"27.212965",
			"CenterLongitude":"31.161398"
		},
		{
			"RegionID":"450",
			"RegionName":"Oranjestad, Aruba",
			"CenterLatitude":"12.520075",
			"CenterLongitude":"-70.036972"
		},
		{
			"RegionID":"451",
			"RegionName":"Arauca, Colombia",
			"CenterLatitude":"7.058272",
			"CenterLongitude":"-70.747383"
		},
		{
			"RegionID":"452",
			"RegionName":"Augusta (and vicinity), Maine, United States of America",
			"CenterLatitude":"44.314713",
			"CenterLongitude":"-69.774689"
		},
		{
			"RegionID":"453",
			"RegionName":"Abu Dhabi, United Arab Emirates",
			"CenterLatitude":"24.486361",
			"CenterLongitude":"54.365681"
		},
		{
			"RegionID":"454",
			"RegionName":"Ambunti, Papua New Guinea",
			"CenterLatitude":"-4.215990",
			"CenterLongitude":"142.816147"
		},
		{
			"RegionID":"455",
			"RegionName":"Alakanuk, Alaska, United States of America",
			"CenterLatitude":"62.688248",
			"CenterLongitude":"-164.656265"
		},
		{
			"RegionID":"456",
			"RegionName":"Aur, Marshall Islands",
			"CenterLatitude":"8.248500",
			"CenterLongitude":"171.096497"
		},
		{
			"RegionID":"459",
			"RegionName":"Aurillac, France",
			"CenterLatitude":"44.929951",
			"CenterLongitude":"2.445310"
		},
		{
			"RegionID":"460",
			"RegionName":"Austin, Texas, United States of America",
			"CenterLatitude":"30.268049",
			"CenterLongitude":"-97.742813"
		},
		{
			"RegionID":"461",
			"RegionName":"Wausau, Wisconsin, United States of America",
			"CenterLatitude":"44.960670",
			"CenterLongitude":"-89.627861"
		},
		{
			"RegionID":"462",
			"RegionName":"Araguaina, Brazil",
			"CenterLatitude":"-7.189375",
			"CenterLongitude":"-48.209988"
		},
		{
			"RegionID":"463",
			"RegionName":"Anatom, Vanuatu",
			"CenterLatitude":"-20.204000",
			"CenterLongitude":"169.817993"
		},
		{
			"RegionID":"464",
			"RegionName":"Ciego de Avila, Cuba",
			"CenterLatitude":"21.861744",
			"CenterLongitude":"-78.759697"
		},
		{
			"RegionID":"465",
			"RegionName":"Asheville, North Carolina, United States of America",
			"CenterLatitude":"35.596382",
			"CenterLongitude":"-82.553177"
		},
		{
			"RegionID":"467",
			"RegionName":"Wilkes-Barre, Pennsylvania, United States of America",
			"CenterLatitude":"41.245911",
			"CenterLongitude":"-75.881729"
		},
		{
			"RegionID":"468",
			"RegionName":"Avu Avu, Solomon Islands",
			"CenterLatitude":"-9.836500",
			"CenterLongitude":"160.382996"
		},
		{
			"RegionID":"469",
			"RegionName":"Aniwa, Vanuatu",
			"CenterLatitude":"-19.245001",
			"CenterLongitude":"169.604996"
		},
		{
			"RegionID":"470",
			"RegionName":"Awareh, Ethiopia",
			"CenterLatitude":"8.258206",
			"CenterLongitude":"44.164734"
		},
		{
			"RegionID":"473",
			"RegionName":"Alexandroupoli, Greece",
			"CenterLatitude":"40.845589",
			"CenterLongitude":"25.876259"
		},
		{
			"RegionID":"475",
			"RegionName":"Armenia, Colombia",
			"CenterLatitude":"4.501417",
			"CenterLongitude":"-75.722046"
		},
		{
			"RegionID":"476",
			"RegionName":"Spring Point, Acklins Island, Bahamas",
			"CenterLatitude":"22.451033",
			"CenterLongitude":"-73.981621"
		},
		{
			"RegionID":"477",
			"RegionName":"Akita, Japan",
			"CenterLatitude":"39.711094",
			"CenterLongitude":"140.221878"
		},
		{
			"RegionID":"478",
			"RegionName":"Axum, Ethiopia",
			"CenterLatitude":"14.126541",
			"CenterLongitude":"38.725174"
		},
		{
			"RegionID":"479",
			"RegionName":"Ayacucho, Peru",
			"CenterLatitude":"-13.168638",
			"CenterLongitude":"-74.207008"
		},
		{
			"RegionID":"481",
			"RegionName":"Antalya, Turkey",
			"CenterLatitude":"36.886208",
			"CenterLongitude":"30.706440"
		},
		{
			"RegionID":"482",
			"RegionName":"Aiyura, Papua New Guinea",
			"CenterLatitude":"-8.639565",
			"CenterLongitude":"146.460312"
		},
		{
			"RegionID":"483",
			"RegionName":"Amazon Bay, Papua New Guinea",
			"CenterLatitude":"-10.291824",
			"CenterLongitude":"149.331726"
		},
		{
			"RegionID":"485",
			"RegionName":"Andizhan, Uzbekistan",
			"CenterLatitude":"40.630608",
			"CenterLongitude":"68.273415"
		},
		{
			"RegionID":"486",
			"RegionName":"Kalamazoo (and vicinity), Michigan, United States of America",
			"CenterLatitude":"42.291702",
			"CenterLongitude":"-85.583160"
		},
		{
			"RegionID":"487",
			"RegionName":"Adrar, Algeria",
			"CenterLatitude":"27.870331",
			"CenterLongitude":"-0.271034"
		},
		{
			"RegionID":"488",
			"RegionName":"Bialla, Papua New Guinea",
			"CenterLatitude":"-5.152124",
			"CenterLongitude":"143.429245"
		},
		{
			"RegionID":"489",
			"RegionName":"Baguio, Philippines",
			"CenterLatitude":"16.402437",
			"CenterLongitude":"120.592354"
		},
		{
			"RegionID":"490",
			"RegionName":"Manama, Bahrain",
			"CenterLatitude":"26.223598",
			"CenterLongitude":"50.587608"
		},
		{
			"RegionID":"491",
			"RegionName":"Balif, Papua New Guinea",
			"CenterLatitude":"-3.613909",
			"CenterLongitude":"142.920624"
		},
		{
			"RegionID":"492",
			"RegionName":"Baku, Azerbaijan",
			"CenterLatitude":"40.369495",
			"CenterLongitude":"49.836845"
		},
		{
			"RegionID":"493",
			"RegionName":"Batman, Turkey",
			"CenterLatitude":"37.876404",
			"CenterLongitude":"41.175655"
		},
		{
			"RegionID":"494",
			"RegionName":"Barranquilla (and vicinity), Colombia",
			"CenterLatitude":"11.001418",
			"CenterLongitude":"-74.855034"
		},
		{
			"RegionID":"495",
			"RegionName":"Ballalae, Solomon Islands",
			"CenterLatitude":"-6.992000",
			"CenterLongitude":"155.882507"
		},
		{
			"RegionID":"496",
			"RegionName":"Baotou, China",
			"CenterLatitude":"41.609013",
			"CenterLongitude":"110.263779"
		},
		{
			"RegionID":"497",
			"RegionName":"Barnaul, Russia",
			"CenterLatitude":"53.348030",
			"CenterLongitude":"83.710503"
		},
		{
			"RegionID":"498",
			"RegionName":"Baia Mare, Romania",
			"CenterLatitude":"47.542709",
			"CenterLongitude":"23.763351"
		},
		{
			"RegionID":"499",
			"RegionName":"Balmaceda, Chile",
			"CenterLatitude":"-45.935089",
			"CenterLongitude":"-71.766617"
		},
		{
			"RegionID":"500",
			"RegionName":"Butaritari, Kiribati",
			"CenterLatitude":"3.072000",
			"CenterLongitude":"172.789993"
		},
		{
			"RegionID":"501",
			"RegionName":"Bhubaneshwar, India",
			"CenterLatitude":"20.294256",
			"CenterLongitude":"85.834068"
		},
		{
			"RegionID":"502",
			"RegionName":"Kasane, Botswana",
			"CenterLatitude":"-17.841814",
			"CenterLongitude":"25.196201"
		},
		{
			"RegionID":"503",
			"RegionName":"Battambang, Cambodia",
			"CenterLatitude":"13.102572",
			"CenterLongitude":"103.178879"
		},
		{
			"RegionID":"504",
			"RegionName":"Bario, Malaysia",
			"CenterLatitude":"3.738000",
			"CenterLongitude":"115.457001"
		},
		{
			"RegionID":"507",
			"RegionName":"Basse-Terre, Guadeloupe",
			"CenterLatitude":"15.990774",
			"CenterLongitude":"-61.686367"
		},
		{
			"RegionID":"508",
			"RegionName":"Baracoa, Cuba",
			"CenterLatitude":"20.365126",
			"CenterLongitude":"-74.519943"
		},
		{
			"RegionID":"509",
			"RegionName":"Bacolod, Philippines",
			"CenterLatitude":"10.630577",
			"CenterLongitude":"122.982292"
		},
		{
			"RegionID":"510",
			"RegionName":"Bryce Canyon, Utah, United States of America",
			"CenterLatitude":"37.627010",
			"CenterLongitude":"-112.172119"
		},
		{
			"RegionID":"511",
			"RegionName":"Barcaldine, Queensland, Australia",
			"CenterLatitude":"-23.570246",
			"CenterLongitude":"145.329788"
		},
		{
			"RegionID":"512",
			"RegionName":"Barra Colorado, Costa Rica",
			"CenterLatitude":"10.751878",
			"CenterLongitude":"-83.628304"
		},
		{
			"RegionID":"513",
			"RegionName":"Barcelona, Spain",
			"CenterLatitude":"41.377850",
			"CenterLongitude":"2.170550"
		},
		{
			"RegionID":"514",
			"RegionName":"Jinka, Ethiopia",
			"CenterLatitude":"5.777606",
			"CenterLongitude":"36.551319"
		},
		{
			"RegionID":"515",
			"RegionName":"Beloreck, Russia",
			"CenterLatitude":"53.953419",
			"CenterLongitude":"58.381371"
		},
		{
			"RegionID":"516",
			"RegionName":"Hamilton, Bermuda",
			"CenterLatitude":"32.294235",
			"CenterLongitude":"-64.781944"
		},
		{
			"RegionID":"517",
			"RegionName":"Bundaberg, Queensland, Australia",
			"CenterLatitude":"-24.866268",
			"CenterLongitude":"152.348694"
		},
		{
			"RegionID":"519",
			"RegionName":"Bird Island, Seychelles",
			"CenterLatitude":"-3.719292",
			"CenterLongitude":"55.210751"
		},
		{
			"RegionID":"520",
			"RegionName":"Banjarmasin, Indonesia",
			"CenterLatitude":"-3.326410",
			"CenterLongitude":"114.590088"
		},
		{
			"RegionID":"521",
			"RegionName":"Bondoukou, Cote d'Ivoire",
			"CenterLatitude":"8.022128",
			"CenterLongitude":"-2.775589"
		},
		{
			"RegionID":"522",
			"RegionName":"Bandung, Indonesia",
			"CenterLatitude":"-6.918051",
			"CenterLongitude":"107.640884"
		},
		{
			"RegionID":"523",
			"RegionName":"Bhadrapur, Nepal",
			"CenterLatitude":"26.533098",
			"CenterLongitude":"88.083145"
		},
		{
			"RegionID":"524",
			"RegionName":"Vadodara, India",
			"CenterLatitude":"22.326616",
			"CenterLongitude":"73.190521"
		},
		{
			"RegionID":"525",
			"RegionName":"Bridgeport, Connecticut, United States of America",
			"CenterLatitude":"41.186993",
			"CenterLongitude":"-73.196587"
		},
		{
			"RegionID":"526",
			"RegionName":"Brindisi, Italy",
			"CenterLatitude":"40.637230",
			"CenterLongitude":"17.945885"
		},
		{
			"RegionID":"528",
			"RegionName":"Bardufoss, Norway",
			"CenterLatitude":"69.057632",
			"CenterLongitude":"18.524178"
		},
		{
			"RegionID":"529",
			"RegionName":"Benbecula, Scotland, United Kingdom",
			"CenterLatitude":"57.443375",
			"CenterLongitude":"-7.307987"
		},
		{
			"RegionID":"530",
			"RegionName":"Bedford, Massachusetts, United States of America",
			"CenterLatitude":"42.498856",
			"CenterLongitude":"-71.278351"
		},
		{
			"RegionID":"531",
			"RegionName":"Benton Harbor, Michigan, United States of America",
			"CenterLatitude":"42.115707",
			"CenterLongitude":"-86.456779"
		},
		{
			"RegionID":"532",
			"RegionName":"Beica, Ethiopia",
			"CenterLatitude":"9.378225",
			"CenterLongitude":"34.543892"
		},
		{
			"RegionID":"533",
			"RegionName":"Berau, Indonesia",
			"CenterLatitude":"2.158987",
			"CenterLongitude":"117.599548"
		},
		{
			"RegionID":"534",
			"RegionName":"Belem (and vicinity), Brazil",
			"CenterLatitude":"-1.355647",
			"CenterLongitude":"-48.411705"
		},
		{
			"RegionID":"535",
			"RegionName":"Benghazi, Libya",
			"CenterLatitude":"32.047359",
			"CenterLongitude":"20.067554"
		},
		{
			"RegionID":"536",
			"RegionName":"Berlin, Germany",
			"CenterLatitude":"52.513840",
			"CenterLongitude":"13.350080"
		},
		{
			"RegionID":"537",
			"RegionName":"Brest, France",
			"CenterLatitude":"48.387291",
			"CenterLongitude":"-4.490040"
		},
		{
			"RegionID":"538",
			"RegionName":"Bethel, Alaska, United States of America",
			"CenterLatitude":"60.793591",
			"CenterLongitude":"-161.803925"
		},
		{
			"RegionID":"539",
			"RegionName":"Bedourie, Queensland, Australia",
			"CenterLatitude":"-24.395382",
			"CenterLongitude":"139.532059"
		},
		{
			"RegionID":"540",
			"RegionName":"Beersheba, Israel",
			"CenterLatitude":"31.260439",
			"CenterLongitude":"34.789474"
		},
		{
			"RegionID":"541",
			"RegionName":"Beira, Mozambique",
			"CenterLatitude":"-19.834641",
			"CenterLongitude":"34.869968"
		},
		{
			"RegionID":"542",
			"RegionName":"Beirut, Lebanon",
			"CenterLatitude":"33.890923",
			"CenterLongitude":"35.503159"
		},
		{
			"RegionID":"543",
			"RegionName":"Beru, Kiribati",
			"CenterLatitude":"-1.321500",
			"CenterLongitude":"175.979507"
		},
		{
			"RegionID":"544",
			"RegionName":"Bradford, Pennsylvania, United States of America",
			"CenterLatitude":"41.915619",
			"CenterLongitude":"-78.765388"
		},
		{
			"RegionID":"545",
			"RegionName":"Scottsbluff, Nebraska, United States of America",
			"CenterLatitude":"41.863850",
			"CenterLongitude":"-103.662773"
		},
		{
			"RegionID":"546",
			"RegionName":"Bakersfield (and vicinity), California, United States of America",
			"CenterLatitude":"35.375790",
			"CenterLongitude":"-119.018784"
		},
		{
			"RegionID":"547",
			"RegionName":"Bloemfontein, South Africa",
			"CenterLatitude":"-29.114170",
			"CenterLongitude":"26.216801"
		},
		{
			"RegionID":"548",
			"RegionName":"Buffalo Range, Zimbabwe",
			"CenterLatitude":"-21.030533",
			"CenterLongitude":"31.541105"
		},
		{
			"RegionID":"549",
			"RegionName":"Belfast, Northern Ireland, United Kingdom",
			"CenterLatitude":"54.598480",
			"CenterLongitude":"-5.930370"
		},
		{
			"RegionID":"550",
			"RegionName":"Bengbu, China",
			"CenterLatitude":"33.122757",
			"CenterLongitude":"117.317787"
		},
		{
			"RegionID":"551",
			"RegionName":"Bafoussam, Cameroon",
			"CenterLatitude":"5.478750",
			"CenterLongitude":"10.419198"
		},
		{
			"RegionID":"552",
			"RegionName":"Bucaramanga (and vicinity), Colombia",
			"CenterLatitude":"7.132001",
			"CenterLongitude":"-73.114227"
		},
		{
			"RegionID":"554",
			"RegionName":"Bridgetown, Barbados",
			"CenterLatitude":"13.104755",
			"CenterLongitude":"-59.600567"
		},
		{
			"RegionID":"555",
			"RegionName":"Borgarfjordur Eystri, Iceland",
			"CenterLatitude":"65.547203",
			"CenterLongitude":"-13.782626"
		},
		{
			"RegionID":"556",
			"RegionName":"Binghamton, New York, United States of America",
			"CenterLatitude":"42.098869",
			"CenterLongitude":"-75.912369"
		},
		{
			"RegionID":"557",
			"RegionName":"Bergen, Norway",
			"CenterLatitude":"60.393520",
			"CenterLongitude":"5.324640"
		},
		{
			"RegionID":"558",
			"RegionName":"Bangor, Maine, United States of America",
			"CenterLatitude":"44.801640",
			"CenterLongitude":"-68.771240"
		},
		{
			"RegionID":"560",
			"RegionName":"Bergamo, Italy",
			"CenterLatitude":"45.695068",
			"CenterLongitude":"9.669701"
		},
		{
			"RegionID":"561",
			"RegionName":"Bar Harbor (and vicinity), Maine, United States of America",
			"CenterLatitude":"44.389771",
			"CenterLongitude":"-68.204750"
		},
		{
			"RegionID":"562",
			"RegionName":"Blenheim, New Zealand",
			"CenterLatitude":"-41.514111",
			"CenterLongitude":"173.956787"
		},
		{
			"RegionID":"563",
			"RegionName":"Bisha, Saudi Arabia",
			"CenterLatitude":"19.971889",
			"CenterLongitude":"42.598244"
		},
		{
			"RegionID":"564",
			"RegionName":"Bahia Blanca, Argentina",
			"CenterLatitude":"-38.719769",
			"CenterLongitude":"-62.263981"
		},
		{
			"RegionID":"565",
			"RegionName":"Bhuj, India",
			"CenterLatitude":"23.243643",
			"CenterLongitude":"69.677246"
		},
		{
			"RegionID":"567",
			"RegionName":"Birmingham, Alabama, United States of America",
			"CenterLatitude":"33.519211",
			"CenterLongitude":"-86.808868"
		},
		{
			"RegionID":"569",
			"RegionName":"Bhopal, India",
			"CenterLatitude":"23.236809",
			"CenterLongitude":"77.405609"
		},
		{
			"RegionID":"570",
			"RegionName":"Broken Hill, New South Wales, Australia",
			"CenterLatitude":"-32.240547",
			"CenterLongitude":"141.534698"
		},
		{
			"RegionID":"571",
			"RegionName":"Bharatpur, Nepal",
			"CenterLatitude":"27.643126",
			"CenterLongitude":"84.390945"
		},
		{
			"RegionID":"572",
			"RegionName":"Bathurst, New South Wales, Bathurst Regional Council, Australia",
			"CenterLatitude":"-33.419281",
			"CenterLongitude":"149.577499"
		},
		{
			"RegionID":"573",
			"RegionName":"Bhavnagar, India",
			"CenterLatitude":"21.756266",
			"CenterLongitude":"72.138718"
		},
		{
			"RegionID":"574",
			"RegionName":"Bahawalpur, Pakistan",
			"CenterLatitude":"29.383312",
			"CenterLongitude":"71.710381"
		},
		{
			"RegionID":"575",
			"RegionName":"Birmingham, England, United Kingdom",
			"CenterLatitude":"52.478271",
			"CenterLongitude":"-1.895130"
		},
		{
			"RegionID":"576",
			"RegionName":"Beihai, China",
			"CenterLatitude":"21.601086",
			"CenterLongitude":"109.282501"
		},
		{
			"RegionID":"577",
			"RegionName":"Belo Horizonte, Brazil",
			"CenterLatitude":"-19.919134",
			"CenterLongitude":"-43.938629"
		},
		{
			"RegionID":"578",
			"RegionName":"Bastia, France",
			"CenterLatitude":"42.697254",
			"CenterLongitude":"9.450884"
		},
		{
			"RegionID":"580",
			"RegionName":"Block Island, Rhode Island, United States of America",
			"CenterLatitude":"41.187641",
			"CenterLongitude":"-71.576874"
		},
		{
			"RegionID":"581",
			"RegionName":"Bikini, Marshall Islands",
			"CenterLatitude":"11.580500",
			"CenterLongitude":"165.380005"
		},
		{
			"RegionID":"582",
			"RegionName":"Biak, Indonesia",
			"CenterLatitude":"-1.175500",
			"CenterLongitude":"136.098999"
		},
		{
			"RegionID":"583",
			"RegionName":"Billings (and vicinity), Montana, United States of America",
			"CenterLatitude":"45.782692",
			"CenterLongitude":"-108.504425"
		},
		{
			"RegionID":"585",
			"RegionName":"Bilbao, Spain",
			"CenterLatitude":"43.261280",
			"CenterLongitude":"-2.927170"
		},
		{
			"RegionID":"586",
			"RegionName":"Biarritz, France",
			"CenterLatitude":"43.483440",
			"CenterLongitude":"-1.561800"
		},
		{
			"RegionID":"587",
			"RegionName":"Biratnagar, Nepal",
			"CenterLatitude":"26.461040",
			"CenterLongitude":"87.270241"
		},
		{
			"RegionID":"588",
			"RegionName":"Bismarck, North Dakota, United States of America",
			"CenterLatitude":"46.806801",
			"CenterLongitude":"-100.785385"
		},
		{
			"RegionID":"589",
			"RegionName":"Bisho, South Africa",
			"CenterLatitude":"-32.832760",
			"CenterLongitude":"27.462389"
		},
		{
			"RegionID":"590",
			"RegionName":"Bejaia, Algeria",
			"CenterLatitude":"36.740990",
			"CenterLongitude":"5.086030"
		},
		{
			"RegionID":"591",
			"RegionName":"Bakkafjordur, Iceland",
			"CenterLatitude":"66.012428",
			"CenterLongitude":"-14.814625"
		},
		{
			"RegionID":"592",
			"RegionName":"Batsfjord, Norway",
			"CenterLatitude":"70.632355",
			"CenterLongitude":"29.709822"
		},
		{
			"RegionID":"593",
			"RegionName":"Bemidji, Minnesota, United States of America",
			"CenterLatitude":"47.470612",
			"CenterLongitude":"-94.881058"
		},
		{
			"RegionID":"594",
			"RegionName":"Banjul, Gambia",
			"CenterLatitude":"13.452002",
			"CenterLongitude":"-16.592684"
		},
		{
			"RegionID":"595",
			"RegionName":"Bujumbura, Burundi",
			"CenterLatitude":"-3.390973",
			"CenterLongitude":"29.358204"
		},
		{
			"RegionID":"596",
			"RegionName":"Bahar Dar, Ethiopia",
			"CenterLatitude":"11.572465",
			"CenterLongitude":"37.371723"
		},
		{
			"RegionID":"597",
			"RegionName":"Beijing, China",
			"CenterLatitude":"39.905998",
			"CenterLongitude":"116.385002"
		},
		{
			"RegionID":"598",
			"RegionName":"Bajawa, Indonesia",
			"CenterLatitude":"-8.789500",
			"CenterLongitude":"120.972504"
		},
		{
			"RegionID":"599",
			"RegionName":"Leon, Guanajuato, Guanajuato (all), Mexico",
			"CenterLatitude":"21.121490",
			"CenterLongitude":"-101.683441"
		},
		{
			"RegionID":"600",
			"RegionName":"Badajoz, Spain",
			"CenterLatitude":"38.878269",
			"CenterLongitude":"-6.970320"
		},
		{
			"RegionID":"601",
			"RegionName":"Buckland, Alaska, United States of America",
			"CenterLatitude":"65.975052",
			"CenterLongitude":"-161.141907"
		},
		{
			"RegionID":"602",
			"RegionName":"Kota Kinabalu (and vicinity), Malaysia",
			"CenterLatitude":"5.979260",
			"CenterLongitude":"116.072922"
		},
		{
			"RegionID":"604",
			"RegionName":"Bangkok, Thailand",
			"CenterLatitude":"13.747500",
			"CenterLongitude":"100.536011"
		},
		{
			"RegionID":"605",
			"RegionName":"Ba'Kelalan, Malaysia",
			"CenterLatitude":"3.975500",
			"CenterLongitude":"115.625000"
		},
		{
			"RegionID":"606",
			"RegionName":"Bamako, Mali",
			"CenterLatitude":"12.617763",
			"CenterLongitude":"-7.955663"
		},
		{
			"RegionID":"607",
			"RegionName":"Blackall, Queensland, Australia",
			"CenterLatitude":"-24.589087",
			"CenterLongitude":"145.409424"
		},
		{
			"RegionID":"608",
			"RegionName":"Bengkulu, Indonesia",
			"CenterLatitude":"-3.812844",
			"CenterLongitude":"102.297501"
		},
		{
			"RegionID":"609",
			"RegionName":"Betioky, Madagascar",
			"CenterLatitude":"-24.615154",
			"CenterLongitude":"44.763889"
		},
		{
			"RegionID":"610",
			"RegionName":"Beckley, West Virginia, United States of America",
			"CenterLatitude":"37.777489",
			"CenterLongitude":"-81.189117"
		},
		{
			"RegionID":"611",
			"RegionName":"Brookings, South Dakota, United States of America",
			"CenterLatitude":"44.310120",
			"CenterLongitude":"-96.798569"
		},
		{
			"RegionID":"613",
			"RegionName":"Bukoba, Tanzania",
			"CenterLatitude":"-1.324153",
			"CenterLongitude":"31.808685"
		},
		{
			"RegionID":"614",
			"RegionName":"Barcelona, Venezuela",
			"CenterLatitude":"10.124423",
			"CenterLongitude":"-64.671547"
		},
		{
			"RegionID":"615",
			"RegionName":"Borlange, Sweden",
			"CenterLatitude":"60.485382",
			"CenterLongitude":"15.432320"
		},
		{
			"RegionID":"616",
			"RegionName":"Bluefield, West Virginia, United States of America",
			"CenterLatitude":"37.268089",
			"CenterLongitude":"-81.222519"
		},
		{
			"RegionID":"617",
			"RegionName":"Belaga, Malaysia",
			"CenterLatitude":"2.698000",
			"CenterLongitude":"113.774498"
		},
		{
			"RegionID":"618",
			"RegionName":"Bellingham, Washington, United States of America",
			"CenterLatitude":"48.751881",
			"CenterLongitude":"-122.478439"
		},
		{
			"RegionID":"619",
			"RegionName":"Blackpool, England, United Kingdom",
			"CenterLatitude":"53.818611",
			"CenterLongitude":"-3.054290"
		},
		{
			"RegionID":"620",
			"RegionName":"Billund, Denmark",
			"CenterLatitude":"55.731422",
			"CenterLongitude":"9.114130"
		},
		{
			"RegionID":"621",
			"RegionName":"Bologna, Italy",
			"CenterLatitude":"44.494049",
			"CenterLongitude":"11.341600"
		},
		{
			"RegionID":"622",
			"RegionName":"Bengaluru, India",
			"CenterLatitude":"12.976180",
			"CenterLongitude":"77.599083"
		},
		{
			"RegionID":"623",
			"RegionName":"Blackwater, Queensland, Australia",
			"CenterLatitude":"-23.484541",
			"CenterLongitude":"148.792847"
		},
		{
			"RegionID":"624",
			"RegionName":"Blantyre, Malawi",
			"CenterLatitude":"-15.791257",
			"CenterLongitude":"35.047329"
		},
		{
			"RegionID":"626",
			"RegionName":"Belo Tsiribihina, Madagascar",
			"CenterLatitude":"-19.702509",
			"CenterLongitude":"44.544743"
		},
		{
			"RegionID":"627",
			"RegionName":"Broome, Western Australia, Australia",
			"CenterLatitude":"-17.953171",
			"CenterLongitude":"122.243530"
		},
		{
			"RegionID":"628",
			"RegionName":"Bloomington, Indiana, United States of America",
			"CenterLatitude":"39.163502",
			"CenterLongitude":"-86.526802"
		},
		{
			"RegionID":"629",
			"RegionName":"Bloomington, Illinois, United States of America",
			"CenterLatitude":"40.480652",
			"CenterLongitude":"-88.994339"
		},
		{
			"RegionID":"630",
			"RegionName":"Bitam, Gabon",
			"CenterLatitude":"2.080837",
			"CenterLongitude":"11.495602"
		},
		{
			"RegionID":"631",
			"RegionName":"Bhamo, Myanmar",
			"CenterLatitude":"24.247499",
			"CenterLongitude":"97.234001"
		},
		{
			"RegionID":"633",
			"RegionName":"Bima, Indonesia",
			"CenterLatitude":"-8.451000",
			"CenterLongitude":"118.723999"
		},
		{
			"RegionID":"634",
			"RegionName":"Buon Ma Thuot, Vietnam",
			"CenterLatitude":"12.659691",
			"CenterLongitude":"108.032158"
		},
		{
			"RegionID":"635",
			"RegionName":"Bordj Badji Mokhtar, Algeria",
			"CenterLatitude":"21.362806",
			"CenterLongitude":"0.941285"
		},
		{
			"RegionID":"636",
			"RegionName":"Belep, New Caledonia",
			"CenterLatitude":"-19.714500",
			"CenterLongitude":"163.619003"
		},
		{
			"RegionID":"637",
			"RegionName":"Nashville, Tennessee, United States of America",
			"CenterLatitude":"36.163738",
			"CenterLongitude":"-86.782890"
		},
		{
			"RegionID":"641",
			"RegionName":"Brisbane, Queensland, Australia",
			"CenterLatitude":"-27.468300",
			"CenterLongitude":"153.026993"
		},
		{
			"RegionID":"642",
			"RegionName":"Benin City, Nigeria",
			"CenterLatitude":"6.341545",
			"CenterLongitude":"5.633617"
		},
		{
			"RegionID":"643",
			"RegionName":"Ballina, New South Wales, Australia",
			"CenterLatitude":"-28.869949",
			"CenterLongitude":"153.559113"
		},
		{
			"RegionID":"644",
			"RegionName":"Bronnoysund, Norway",
			"CenterLatitude":"65.480286",
			"CenterLongitude":"12.199270"
		},
		{
			"RegionID":"645",
			"RegionName":"Bannu, Pakistan",
			"CenterLatitude":"32.991676",
			"CenterLongitude":"70.603127"
		},
		{
			"RegionID":"646",
			"RegionName":"Barinas, Venezuela",
			"CenterLatitude":"8.621129",
			"CenterLongitude":"-70.230034"
		},
		{
			"RegionID":"647",
			"RegionName":"Bundi, Papua New Guinea",
			"CenterLatitude":"-3.993300",
			"CenterLongitude":"143.016846"
		},
		{
			"RegionID":"648",
			"RegionName":"Bellona Island, Solomon Islands",
			"CenterLatitude":"-11.299000",
			"CenterLongitude":"159.796494"
		},
		{
			"RegionID":"651",
			"RegionName":"Bordeaux, France",
			"CenterLatitude":"44.841061",
			"CenterLongitude":"-0.580168"
		},
		{
			"RegionID":"652",
			"RegionName":"Boundji, Republic of the Congo",
			"CenterLatitude":"-1.036140",
			"CenterLongitude":"15.361932"
		},
		{
			"RegionID":"653",
			"RegionName":"Bogota, Colombia",
			"CenterLatitude":"4.661003",
			"CenterLongitude":"-74.092842"
		},
		{
			"RegionID":"654",
			"RegionName":"Bournemouth, England, United Kingdom",
			"CenterLatitude":"50.719891",
			"CenterLongitude":"-1.880030"
		},
		{
			"RegionID":"655",
			"RegionName":"Boise, Idaho, United States of America",
			"CenterLatitude":"43.614799",
			"CenterLongitude":"-116.204079"
		},
		{
			"RegionID":"656",
			"RegionName":"Bourgas, Bulgaria",
			"CenterLatitude":"42.496399",
			"CenterLongitude":"27.470116"
		},
		{
			"RegionID":"657",
			"RegionName":"Mumbai, India",
			"CenterLatitude":"19.093731",
			"CenterLongitude":"72.867989"
		},
		{
			"RegionID":"659",
			"RegionName":"Bodo, Norway",
			"CenterLatitude":"67.283180",
			"CenterLongitude":"14.384131"
		},
		{
			"RegionID":"660",
			"RegionName":"Boston, Massachusetts, United States of America",
			"CenterLatitude":"42.359356",
			"CenterLongitude":"-71.059784"
		},
		{
			"RegionID":"661",
			"RegionName":"Boang, Papua New Guinea",
			"CenterLatitude":"-3.310110",
			"CenterLongitude":"142.805161"
		},
		{
			"RegionID":"662",
			"RegionName":"Borroloola, Northern Territory, Australia",
			"CenterLatitude":"-16.082689",
			"CenterLongitude":"136.309341"
		},
		{
			"RegionID":"663",
			"RegionName":"Bobo Dioulasso, Burkina Faso",
			"CenterLatitude":"11.176586",
			"CenterLongitude":"-4.284547"
		},
		{
			"RegionID":"664",
			"RegionName":"Bamenda, Cameroon",
			"CenterLatitude":"5.951528",
			"CenterLongitude":"10.158272"
		},
		{
			"RegionID":"665",
			"RegionName":"Balikpapan, Indonesia",
			"CenterLatitude":"-1.150426",
			"CenterLongitude":"116.918823"
		},
		{
			"RegionID":"666",
			"RegionName":"Porto Seguro, Brazil",
			"CenterLatitude":"-16.444935",
			"CenterLongitude":"-39.063854"
		},
		{
			"RegionID":"667",
			"RegionName":"Beaumont (and vicinity), Texas, United States of America",
			"CenterLatitude":"30.083540",
			"CenterLongitude":"-94.099609"
		},
		{
			"RegionID":"668",
			"RegionName":"Besalampy, Madagascar",
			"CenterLatitude":"-16.748165",
			"CenterLongitude":"44.495129"
		},
		{
			"RegionID":"669",
			"RegionName":"Bubaque, Guinea-Bissau",
			"CenterLatitude":"11.250230",
			"CenterLongitude":"-15.866524"
		},
		{
			"RegionID":"670",
			"RegionName":"Biggin Hill, Westerham, England, United Kingdom",
			"CenterLatitude":"51.313629",
			"CenterLongitude":"0.028729"
		},
		{
			"RegionID":"671",
			"RegionName":"Brunswick, Georgia, United States of America",
			"CenterLatitude":"31.149158",
			"CenterLongitude":"-81.495071"
		},
		{
			"RegionID":"672",
			"RegionName":"Boulia, Queensland, Australia",
			"CenterLatitude":"-22.877979",
			"CenterLongitude":"139.916458"
		},
		{
			"RegionID":"673",
			"RegionName":"Aguadilla, Puerto Rico",
			"CenterLatitude":"18.462175",
			"CenterLongitude":"-67.130531"
		},
		{
			"RegionID":"674",
			"RegionName":"Bouna, Cote d'Ivoire",
			"CenterLatitude":"9.268788",
			"CenterLongitude":"-2.990432"
		},
		{
			"RegionID":"675",
			"RegionName":"Blagoveshchensk, Russia",
			"CenterLatitude":"50.286720",
			"CenterLongitude":"127.602638"
		},
		{
			"RegionID":"676",
			"RegionName":"Port Elizabeth, Bequia Island, St. Vincent and the Grenadines",
			"CenterLatitude":"13.000170",
			"CenterLongitude":"-61.244518"
		},
		{
			"RegionID":"677",
			"RegionName":"Bariloche, Argentina",
			"CenterLatitude":"-41.135509",
			"CenterLongitude":"-71.301498"
		},
		{
			"RegionID":"678",
			"RegionName":"Brainerd, Minnesota, United States of America",
			"CenterLatitude":"46.355801",
			"CenterLongitude":"-94.200653"
		},
		{
			"RegionID":"679",
			"RegionName":"Bremen, Germany",
			"CenterLatitude":"53.075668",
			"CenterLongitude":"8.806880"
		},
		{
			"RegionID":"680",
			"RegionName":"Bari, Italy",
			"CenterLatitude":"41.130150",
			"CenterLongitude":"16.869572"
		},
		{
			"RegionID":"681",
			"RegionName":"Bourke, New South Wales, Australia",
			"CenterLatitude":"-30.039215",
			"CenterLongitude":"146.076401"
		},
		{
			"RegionID":"682",
			"RegionName":"Burlington (and vicinity), Iowa, United States of America",
			"CenterLatitude":"40.813160",
			"CenterLongitude":"-91.103134"
		},
		{
			"RegionID":"683",
			"RegionName":"Barquisimeto, Venezuela",
			"CenterLatitude":"10.030413",
			"CenterLongitude":"-69.311378"
		},
		{
			"RegionID":"684",
			"RegionName":"Bern, Switzerland",
			"CenterLatitude":"46.948219",
			"CenterLongitude":"7.444170"
		},
		{
			"RegionID":"685",
			"RegionName":"Brownsville, Texas, United States of America",
			"CenterLatitude":"25.902981",
			"CenterLongitude":"-97.497437"
		},
		{
			"RegionID":"686",
			"RegionName":"Brno, Czech Republic",
			"CenterLatitude":"49.194000",
			"CenterLongitude":"16.609058"
		},
		{
			"RegionID":"687",
			"RegionName":"Isle of Barra, Scotland, United Kingdom",
			"CenterLatitude":"56.992535",
			"CenterLongitude":"-7.465907"
		},
		{
			"RegionID":"688",
			"RegionName":"Bristol (and vicinity), England, United Kingdom",
			"CenterLatitude":"51.452007",
			"CenterLongitude":"-2.607073"
		},
		{
			"RegionID":"689",
			"RegionName":"Bathurst Island, Northern Territory, Australia",
			"CenterLatitude":"-11.617110",
			"CenterLongitude":"130.260223"
		},
		{
			"RegionID":"690",
			"RegionName":"Brussels, Belgium",
			"CenterLatitude":"50.846500",
			"CenterLongitude":"4.353310"
		},
		{
			"RegionID":"691",
			"RegionName":"Barrow, Alaska, United States of America",
			"CenterLatitude":"71.286896",
			"CenterLongitude":"-156.775345"
		},
		{
			"RegionID":"693",
			"RegionName":"Brasilia, Brazil",
			"CenterLatitude":"-15.794650",
			"CenterLongitude":"-47.883743"
		},
		{
			"RegionID":"694",
			"RegionName":"Bahia Solano, Colombia",
			"CenterLatitude":"6.221758",
			"CenterLongitude":"-77.366219"
		},
		{
			"RegionID":"695",
			"RegionName":"Baoshan, Shanghai, China",
			"CenterLatitude":"31.408197",
			"CenterLongitude":"121.409897"
		},
		{
			"RegionID":"696",
			"RegionName":"Bata, Equatorial Guinea",
			"CenterLatitude":"1.858941",
			"CenterLongitude":"9.768830"
		},
		{
			"RegionID":"697",
			"RegionName":"Biskra, Algeria",
			"CenterLatitude":"34.851425",
			"CenterLongitude":"5.717567"
		},
		{
			"RegionID":"698",
			"RegionName":"Basel, Switzerland",
			"CenterLatitude":"47.558189",
			"CenterLongitude":"7.587920"
		},
		{
			"RegionID":"702",
			"RegionName":"Bertoua, Cameroon",
			"CenterLatitude":"4.573047",
			"CenterLongitude":"13.679509"
		},
		{
			"RegionID":"705",
			"RegionName":"Banda Aceh, Indonesia",
			"CenterLatitude":"5.560110",
			"CenterLongitude":"95.320503"
		},
		{
			"RegionID":"706",
			"RegionName":"Bratsk, Russia",
			"CenterLatitude":"56.246365",
			"CenterLongitude":"101.715271"
		},
		{
			"RegionID":"707",
			"RegionName":"Butte (and vicinity), Montana, United States of America",
			"CenterLatitude":"46.013710",
			"CenterLongitude":"-112.535721"
		},
		{
			"RegionID":"708",
			"RegionName":"Baton Rouge, Louisiana, United States of America",
			"CenterLatitude":"30.451519",
			"CenterLongitude":"-91.186913"
		},
		{
			"RegionID":"709",
			"RegionName":"Bratislava, Slovakia",
			"CenterLatitude":"48.143517",
			"CenterLongitude":"17.108286"
		},
		{
			"RegionID":"710",
			"RegionName":"Bettles, Alaska, United States of America",
			"CenterLatitude":"66.913849",
			"CenterLongitude":"-151.680084"
		},
		{
			"RegionID":"711",
			"RegionName":"Bintulu, Malaysia",
			"CenterLatitude":"2.987409",
			"CenterLongitude":"113.261421"
		},
		{
			"RegionID":"712",
			"RegionName":"Burlington, Vermont, United States of America",
			"CenterLatitude":"44.476578",
			"CenterLongitude":"-73.212540"
		},
		{
			"RegionID":"713",
			"RegionName":"Buka Island, Papua New Guinea",
			"CenterLatitude":"-5.243194",
			"CenterLongitude":"154.610519"
		},
		{
			"RegionID":"714",
			"RegionName":"Burketown, Queensland, Australia",
			"CenterLatitude":"-17.848194",
			"CenterLongitude":"139.632385"
		},
		{
			"RegionID":"715",
			"RegionName":"Budapest, Hungary",
			"CenterLatitude":"47.493160",
			"CenterLongitude":"19.055599"
		},
		{
			"RegionID":"716",
			"RegionName":"Buenos Aires, Argentina",
			"CenterLatitude":"-34.609501",
			"CenterLongitude":"-58.387199"
		},
		{
			"RegionID":"717",
			"RegionName":"Buffalo, New York, United States of America",
			"CenterLatitude":"42.886009",
			"CenterLongitude":"-78.875488"
		},
		{
			"RegionID":"718",
			"RegionName":"Benguela, Angola",
			"CenterLatitude":"-12.589481",
			"CenterLongitude":"13.418112"
		},
		{
			"RegionID":"719",
			"RegionName":"Bucharest (and vicinity), Romania",
			"CenterLatitude":"44.426670",
			"CenterLongitude":"26.102314"
		},
		{
			"RegionID":"720",
			"RegionName":"Boussaada, Algeria",
			"CenterLatitude":"35.200684",
			"CenterLongitude":"4.182914"
		},
		{
			"RegionID":"722",
			"RegionName":"Bulolo, Papua New Guinea",
			"CenterLatitude":"-7.204448",
			"CenterLongitude":"146.632141"
		},
		{
			"RegionID":"724",
			"RegionName":"Bulawayo, Zimbabwe",
			"CenterLatitude":"-20.166088",
			"CenterLongitude":"28.568110"
		},
		{
			"RegionID":"725",
			"RegionName":"Burbank, California, United States of America",
			"CenterLatitude":"34.183899",
			"CenterLongitude":"-118.327248"
		},
		{
			"RegionID":"726",
			"RegionName":"Batumi, Georgia",
			"CenterLatitude":"41.642052",
			"CenterLongitude":"41.627209"
		},
		{
			"RegionID":"729",
			"RegionName":"Boa Vista, Brazil",
			"CenterLatitude":"3.117827",
			"CenterLongitude":"-60.718113"
		},
		{
			"RegionID":"730",
			"RegionName":"Boa Vista, Cape Verde",
			"CenterLatitude":"16.098162",
			"CenterLongitude":"-22.832687"
		},
		{
			"RegionID":"731",
			"RegionName":"Brive-la-Gaillarde, France",
			"CenterLatitude":"45.158760",
			"CenterLongitude":"1.532530"
		},
		{
			"RegionID":"732",
			"RegionName":"Berlevag, Norway",
			"CenterLatitude":"70.856232",
			"CenterLongitude":"29.095606"
		},
		{
			"RegionID":"733",
			"RegionName":"Vilhena, Brazil",
			"CenterLatitude":"-12.709796",
			"CenterLongitude":"-60.105125"
		},
		{
			"RegionID":"734",
			"RegionName":"Birdsville, Queensland, Australia",
			"CenterLatitude":"-25.407806",
			"CenterLongitude":"139.167664"
		},
		{
			"RegionID":"736",
			"RegionName":"Brownwood, Texas, United States of America",
			"CenterLatitude":"31.721378",
			"CenterLongitude":"-98.981277"
		},
		{
			"RegionID":"737",
			"RegionName":"Braunschweig, Germany",
			"CenterLatitude":"52.263588",
			"CenterLongitude":"10.521231"
		},
		{
			"RegionID":"738",
			"RegionName":"Baltimore, Maryland, United States of America",
			"CenterLatitude":"39.286690",
			"CenterLongitude":"-76.609283"
		},
		{
			"RegionID":"739",
			"RegionName":"Bol, Croatia",
			"CenterLatitude":"43.261051",
			"CenterLongitude":"16.654280"
		},
		{
			"RegionID":"740",
			"RegionName":"Bandar Seri Begawan, Brunei",
			"CenterLatitude":"4.894840",
			"CenterLongitude":"114.939568"
		},
		{
			"RegionID":"741",
			"RegionName":"Brewarrina, New South Wales, Australia",
			"CenterLatitude":"-29.988939",
			"CenterLongitude":"146.888214"
		},
		{
			"RegionID":"742",
			"RegionName":"Burnie, Tasmania, Australia",
			"CenterLatitude":"-41.052170",
			"CenterLongitude":"145.906631"
		},
		{
			"RegionID":"743",
			"RegionName":"Bakel, Senegal",
			"CenterLatitude":"14.894750",
			"CenterLongitude":"-12.479138"
		},
		{
			"RegionID":"744",
			"RegionName":"Boundiali, Cote d'Ivoire",
			"CenterLatitude":"9.515966",
			"CenterLongitude":"-6.471116"
		},
		{
			"RegionID":"745",
			"RegionName":"Bodrum, Turkey",
			"CenterLatitude":"37.033260",
			"CenterLongitude":"27.436634"
		},
		{
			"RegionID":"746",
			"RegionName":"Butuan, Philippines",
			"CenterLatitude":"8.939139",
			"CenterLongitude":"125.593575"
		},
		{
			"RegionID":"747",
			"RegionName":"Breiddalsvik, Iceland",
			"CenterLatitude":"64.796410",
			"CenterLongitude":"-14.010128"
		},
		{
			"RegionID":"749",
			"RegionName":"Boundary, Alaska, United States of America",
			"CenterLatitude":"64.085793",
			"CenterLongitude":"-141.041412"
		},
		{
			"RegionID":"750",
			"RegionName":"Dibba, Oman",
			"CenterLatitude":"25.651779",
			"CenterLongitude":"56.219765"
		},
		{
			"RegionID":"752",
			"RegionName":"Bouake, Cote d'Ivoire",
			"CenterLatitude":"7.687539",
			"CenterLongitude":"-5.023179"
		},
		{
			"RegionID":"753",
			"RegionName":"Bayamo, Cuba",
			"CenterLatitude":"20.393532",
			"CenterLongitude":"-76.627968"
		},
		{
			"RegionID":"754",
			"RegionName":"Bayreuth, Germany",
			"CenterLatitude":"49.937717",
			"CenterLongitude":"11.585093"
		},
		{
			"RegionID":"755",
			"RegionName":"Blakely Island, Washington, United States of America",
			"CenterLatitude":"48.560852",
			"CenterLongitude":"-122.804512"
		},
		{
			"RegionID":"756",
			"RegionName":"Belize City, Belize",
			"CenterLatitude":"17.495708",
			"CenterLongitude":"-88.186745"
		},
		{
			"RegionID":"757",
			"RegionName":"Bozeman (and vicinity), Montana, United States of America",
			"CenterLatitude":"45.679310",
			"CenterLongitude":"-111.034210"
		},
		{
			"RegionID":"758",
			"RegionName":"Beziers (and vicinity), France",
			"CenterLatitude":"43.341640",
			"CenterLongitude":"3.217020"
		},
		{
			"RegionID":"760",
			"RegionName":"Brazzaville, Republic of the Congo",
			"CenterLatitude":"-4.237149",
			"CenterLongitude":"15.292216"
		},
		{
			"RegionID":"761",
			"RegionName":"Brize Norton, Carterton, England, United Kingdom",
			"CenterLatitude":"51.751842",
			"CenterLongitude":"-1.590815"
		},
		{
			"RegionID":"762",
			"RegionName":"Cabinda, Angola",
			"CenterLatitude":"-5.555295",
			"CenterLongitude":"12.181989"
		},
		{
			"RegionID":"763",
			"RegionName":"Cascavel (Parana), Brazil",
			"CenterLatitude":"-24.955441",
			"CenterLongitude":"-53.459057"
		},
		{
			"RegionID":"764",
			"RegionName":"Columbia (and vicinity), South Carolina, United States of America",
			"CenterLatitude":"34.005360",
			"CenterLongitude":"-81.035385"
		},
		{
			"RegionID":"765",
			"RegionName":"Carauari, Brazil",
			"CenterLatitude":"-5.118368",
			"CenterLongitude":"-67.336838"
		},
		{
			"RegionID":"766",
			"RegionName":"Cagliari, Italy",
			"CenterLatitude":"39.217293",
			"CenterLongitude":"9.113360"
		},
		{
			"RegionID":"767",
			"RegionName":"Cairo, Egypt",
			"CenterLatitude":"30.044437",
			"CenterLongitude":"31.235710"
		},
		{
			"RegionID":"768",
			"RegionName":"Akron, Ohio, United States of America",
			"CenterLatitude":"41.085152",
			"CenterLongitude":"-81.516983"
		},
		{
			"RegionID":"769",
			"RegionName":"Campbeltown, Scotland, United Kingdom",
			"CenterLatitude":"55.426922",
			"CenterLongitude":"-5.619796"
		},
		{
			"RegionID":"770",
			"RegionName":"Camiri, Bolivia",
			"CenterLatitude":"-20.032408",
			"CenterLongitude":"-63.526505"
		},
		{
			"RegionID":"771",
			"RegionName":"Guangzhou (and vicinity), China",
			"CenterLatitude":"23.133730",
			"CenterLongitude":"113.266190"
		},
		{
			"RegionID":"772",
			"RegionName":"Cap-Haitien (and vicinity), Haiti",
			"CenterLatitude":"19.721708",
			"CenterLongitude":"-72.219406"
		},
		{
			"RegionID":"773",
			"RegionName":"Caucasia, Colombia",
			"CenterLatitude":"7.892553",
			"CenterLongitude":"-75.033981"
		},
		{
			"RegionID":"774",
			"RegionName":"Casablanca, Morocco",
			"CenterLatitude":"33.596729",
			"CenterLongitude":"-7.616807"
		},
		{
			"RegionID":"776",
			"RegionName":"Cayenne, French Guiana",
			"CenterLatitude":"4.923432",
			"CenterLongitude":"-52.263809"
		},
		{
			"RegionID":"777",
			"RegionName":"Cobar, New South Wales, Australia",
			"CenterLatitude":"-31.554174",
			"CenterLongitude":"145.828537"
		},
		{
			"RegionID":"779",
			"RegionName":"Cochabamba, Bolivia",
			"CenterLatitude":"-17.388485",
			"CenterLongitude":"-66.154694"
		},
		{
			"RegionID":"780",
			"RegionName":"Cumberland, Maryland, United States of America",
			"CenterLatitude":"39.649277",
			"CenterLongitude":"-78.747375"
		},
		{
			"RegionID":"781",
			"RegionName":"Cambridge, England, United Kingdom",
			"CenterLatitude":"52.204720",
			"CenterLongitude":"0.120070"
		},
		{
			"RegionID":"782",
			"RegionName":"Bechar, Algeria",
			"CenterLatitude":"31.607122",
			"CenterLongitude":"-2.228384"
		},
		{
			"RegionID":"783",
			"RegionName":"Ciudad Bolivar, Venezuela",
			"CenterLatitude":"8.113114",
			"CenterLongitude":"-63.561253"
		},
		{
			"RegionID":"784",
			"RegionName":"Cotabato, Philippines",
			"CenterLatitude":"7.212000",
			"CenterLongitude":"124.242996"
		},
		{
			"RegionID":"785",
			"RegionName":"Calabar, Nigeria",
			"CenterLatitude":"4.983447",
			"CenterLongitude":"8.336222"
		},
		{
			"RegionID":"786",
			"RegionName":"Canberra, Australian Capital Territory, Australia",
			"CenterLatitude":"-35.283413",
			"CenterLongitude":"149.128128"
		},
		{
			"RegionID":"787",
			"RegionName":"Grand Case, St. Martin",
			"CenterLatitude":"18.101494",
			"CenterLongitude":"-63.055046"
		},
		{
			"RegionID":"788",
			"RegionName":"Carcassonne, France",
			"CenterLatitude":"43.213219",
			"CenterLongitude":"2.351980"
		},
		{
			"RegionID":"789",
			"RegionName":"Kozhikode, India",
			"CenterLatitude":"11.248780",
			"CenterLongitude":"75.783829"
		},
		{
			"RegionID":"790",
			"RegionName":"Concepcion (and vicinity), Chile",
			"CenterLatitude":"-36.811928",
			"CenterLongitude":"-73.037308"
		},
		{
			"RegionID":"791",
			"RegionName":"Caracas, Venezuela",
			"CenterLatitude":"10.502350",
			"CenterLongitude":"-66.913521"
		},
		{
			"RegionID":"792",
			"RegionName":"Kolkata, India",
			"CenterLatitude":"22.569633",
			"CenterLongitude":"88.360809"
		},
		{
			"RegionID":"793",
			"RegionName":"Craig Cove, Vanuatu",
			"CenterLatitude":"-16.182501",
			"CenterLongitude":"167.521500"
		},
		{
			"RegionID":"794",
			"RegionName":"Cold Bay, Alaska, United States of America",
			"CenterLatitude":"55.211720",
			"CenterLongitude":"-162.719116"
		},
		{
			"RegionID":"795",
			"RegionName":"Cedar City, Utah, United States of America",
			"CenterLatitude":"37.677338",
			"CenterLongitude":"-113.061722"
		},
		{
			"RegionID":"796",
			"RegionName":"Conceicao do Araguaia, Brazil",
			"CenterLatitude":"-8.256631",
			"CenterLongitude":"-49.288269"
		},
		{
			"RegionID":"797",
			"RegionName":"Candle, Alaska, United States of America",
			"CenterLatitude":"65.907745",
			"CenterLongitude":"-161.922089"
		},
		{
			"RegionID":"798",
			"RegionName":"Chadron, Nebraska, United States of America",
			"CenterLatitude":"42.827129",
			"CenterLongitude":"-103.043877"
		},
		{
			"RegionID":"799",
			"RegionName":"Cordova, Alaska, United States of America",
			"CenterLatitude":"60.544498",
			"CenterLongitude":"-145.754776"
		},
		{
			"RegionID":"800",
			"RegionName":"Cebu, Philippines",
			"CenterLatitude":"10.309726",
			"CenterLongitude":"123.893089"
		},
		{
			"RegionID":"801",
			"RegionName":"Crescent City, California, United States of America",
			"CenterLatitude":"41.775280",
			"CenterLongitude":"-124.006432"
		},
		{
			"RegionID":"802",
			"RegionName":"Ceduna, South Australia, The Dc Of Ceduna, Australia",
			"CenterLatitude":"-32.046761",
			"CenterLongitude":"133.624619"
		},
		{
			"RegionID":"804",
			"RegionName":"Chelyabinsk, Russia",
			"CenterLatitude":"55.167706",
			"CenterLongitude":"61.395107"
		},
		{
			"RegionID":"805",
			"RegionName":"Central, Alaska, United States of America",
			"CenterLatitude":"65.565643",
			"CenterLongitude":"-144.795105"
		},
		{
			"RegionID":"806",
			"RegionName":"Ciudad Obregon, Sonora, Mexico",
			"CenterLatitude":"27.489239",
			"CenterLongitude":"-109.935890"
		},
		{
			"RegionID":"807",
			"RegionName":"Waco Kungo, Angola",
			"CenterLatitude":"-11.357786",
			"CenterLongitude":"15.103441"
		},
		{
			"RegionID":"808",
			"RegionName":"Cannes, France",
			"CenterLatitude":"43.553951",
			"CenterLongitude":"7.017060"
		},
		{
			"RegionID":"809",
			"RegionName":"Cherbourg-en-Cotentin, France",
			"CenterLatitude":"49.639969",
			"CenterLongitude":"-1.622970"
		},
		{
			"RegionID":"810",
			"RegionName":"Cortez (and vicinity), Colorado, United States of America",
			"CenterLatitude":"37.348629",
			"CenterLongitude":"-108.583862"
		},
		{
			"RegionID":"812",
			"RegionName":"Clermont-Ferrand, France",
			"CenterLatitude":"45.776459",
			"CenterLongitude":"3.082100"
		},
		{
			"RegionID":"814",
			"RegionName":"Caen, France",
			"CenterLatitude":"49.182968",
			"CenterLongitude":"-0.364280"
		},
		{
			"RegionID":"815",
			"RegionName":"Coffs Harbour (and vicinity), New South Wales, Australia",
			"CenterLatitude":"-30.297924",
			"CenterLongitude":"153.116409"
		},
		{
			"RegionID":"816",
			"RegionName":"Corfu, Greece",
			"CenterLatitude":"39.598507",
			"CenterLongitude":"19.858486"
		},
		{
			"RegionID":"817",
			"RegionName":"Craig, Alaska, United States of America",
			"CenterLatitude":"55.450642",
			"CenterLongitude":"-132.988541"
		},
		{
			"RegionID":"818",
			"RegionName":"Cuiaba (and vicinity), Brazil",
			"CenterLatitude":"-15.628691",
			"CenterLongitude":"-56.087021"
		},
		{
			"RegionID":"819",
			"RegionName":"Cape Gloucester, Papua New Guinea",
			"CenterLatitude":"-5.517000",
			"CenterLongitude":"148.510498"
		},
		{
			"RegionID":"820",
			"RegionName":"Cape Girardeau, Missouri, United States of America",
			"CenterLatitude":"37.326546",
			"CenterLongitude":"-89.581894"
		},
		{
			"RegionID":"821",
			"RegionName":"Cologne, Germany",
			"CenterLatitude":"50.940102",
			"CenterLongitude":"6.953330"
		},
		{
			"RegionID":"822",
			"RegionName":"Zhengzhou, China",
			"CenterLatitude":"34.603428",
			"CenterLongitude":"113.448318"
		},
		{
			"RegionID":"823",
			"RegionName":"Chittagong, Bangladesh",
			"CenterLatitude":"22.305000",
			"CenterLongitude":"91.817497"
		},
		{
			"RegionID":"824",
			"RegionName":"Changchun, China",
			"CenterLatitude":"44.378239",
			"CenterLongitude":"125.752876"
		},
		{
			"RegionID":"825",
			"RegionName":"Campo Grande, Brazil",
			"CenterLatitude":"-20.470013",
			"CenterLongitude":"-54.621151"
		},
		{
			"RegionID":"826",
			"RegionName":"Cagayan de Oro, Philippines",
			"CenterLatitude":"8.459122",
			"CenterLongitude":"124.620682"
		},
		{
			"RegionID":"827",
			"RegionName":"Chattanooga (and vicinity), Tennessee, United States of America",
			"CenterLatitude":"35.045769",
			"CenterLongitude":"-85.309418"
		},
		{
			"RegionID":"828",
			"RegionName":"Christchurch, New Zealand",
			"CenterLatitude":"-43.530960",
			"CenterLongitude":"172.636459"
		},
		{
			"RegionID":"829",
			"RegionName":"Chicago, Illinois, United States of America",
			"CenterLatitude":"41.880779",
			"CenterLongitude":"-87.628128"
		},
		{
			"RegionID":"830",
			"RegionName":"Charlottesville, Virginia, United States of America",
			"CenterLatitude":"38.031029",
			"CenterLongitude":"-78.479660"
		},
		{
			"RegionID":"831",
			"RegionName":"Circle Hot Springs, Alaska, United States of America",
			"CenterLatitude":"65.484428",
			"CenterLongitude":"-144.635742"
		},
		{
			"RegionID":"833",
			"RegionName":"Charleston, South Carolina, United States of America",
			"CenterLatitude":"32.780781",
			"CenterLongitude":"-79.931541"
		},
		{
			"RegionID":"834",
			"RegionName":"Chatham Island, New Zealand",
			"CenterLatitude":"-43.883762",
			"CenterLongitude":"-176.550293"
		},
		{
			"RegionID":"835",
			"RegionName":"Chuathbaluk, Alaska, United States of America",
			"CenterLatitude":"61.577526",
			"CenterLongitude":"-159.244904"
		},
		{
			"RegionID":"836",
			"RegionName":"Choiseul Bay, Solomon Islands",
			"CenterLatitude":"-6.682500",
			"CenterLongitude":"156.386993"
		},
		{
			"RegionID":"837",
			"RegionName":"Chico, California, United States of America",
			"CenterLatitude":"39.728500",
			"CenterLongitude":"-121.838882"
		},
		{
			"RegionID":"838",
			"RegionName":"Cedar Rapids, Iowa, United States of America",
			"CenterLatitude":"41.978081",
			"CenterLongitude":"-91.663696"
		},
		{
			"RegionID":"839",
			"RegionName":"Cobija, Bolivia",
			"CenterLatitude":"-11.036361",
			"CenterLongitude":"-68.785629"
		},
		{
			"RegionID":"840",
			"RegionName":"Chalkyitsik, Alaska, United States of America",
			"CenterLatitude":"66.657196",
			"CenterLongitude":"-143.723221"
		},
		{
			"RegionID":"841",
			"RegionName":"Chipata, Zambia",
			"CenterLatitude":"-13.631180",
			"CenterLongitude":"32.639065"
		},
		{
			"RegionID":"842",
			"RegionName":"Shymkent, Kazakhstan",
			"CenterLatitude":"42.348083",
			"CenterLongitude":"69.586617"
		},
		{
			"RegionID":"844",
			"RegionName":"Chiclayo (and vicinity), Peru",
			"CenterLatitude":"-6.781164",
			"CenterLongitude":"-79.828491"
		},
		{
			"RegionID":"845",
			"RegionName":"Cajamarca (and vicinity), Peru",
			"CenterLatitude":"-7.159376",
			"CenterLongitude":"-78.503815"
		},
		{
			"RegionID":"846",
			"RegionName":"Coimbatore, India",
			"CenterLatitude":"11.018357",
			"CenterLongitude":"76.965858"
		},
		{
			"RegionID":"847",
			"RegionName":"Calama, Chile",
			"CenterLatitude":"-22.541021",
			"CenterLongitude":"-68.824249"
		},
		{
			"RegionID":"848",
			"RegionName":"Chitral, Pakistan",
			"CenterLatitude":"36.021591",
			"CenterLongitude":"71.751839"
		},
		{
			"RegionID":"849",
			"RegionName":"Ciudad Juarez, Chihuahua, Mexico",
			"CenterLatitude":"31.662605",
			"CenterLongitude":"-106.447495"
		},
		{
			"RegionID":"850",
			"RegionName":"Jeju, South Korea",
			"CenterLatitude":"33.513241",
			"CenterLongitude":"126.527184"
		},
		{
			"RegionID":"851",
			"RegionName":"Clarksburg, West Virginia, United States of America",
			"CenterLatitude":"39.293896",
			"CenterLongitude":"-80.381454"
		},
		{
			"RegionID":"852",
			"RegionName":"Crooked Creek, Alaska, United States of America",
			"CenterLatitude":"61.871529",
			"CenterLongitude":"-158.119370"
		},
		{
			"RegionID":"853",
			"RegionName":"Chongqing, China",
			"CenterLatitude":"29.484379",
			"CenterLongitude":"106.593170"
		},
		{
			"RegionID":"854",
			"RegionName":"Carajas, Brazil",
			"CenterLatitude":"-2.953630",
			"CenterLongitude":"-51.867561"
		},
		{
			"RegionID":"855",
			"RegionName":"Chicken, Alaska, United States of America",
			"CenterLatitude":"64.071884",
			"CenterLongitude":"-141.936432"
		},
		{
			"RegionID":"856",
			"RegionName":"Conakry, Guinea",
			"CenterLatitude":"9.611214",
			"CenterLongitude":"-13.590996"
		},
		{
			"RegionID":"857",
			"RegionName":"Canakkale, Turkey",
			"CenterLatitude":"40.050838",
			"CenterLongitude":"26.488680"
		},
		{
			"RegionID":"859",
			"RegionName":"Cleveland, Ohio, United States of America",
			"CenterLatitude":"41.500221",
			"CenterLongitude":"-81.693573"
		},
		{
			"RegionID":"860",
			"RegionName":"Cluj-Napoca, Romania",
			"CenterLatitude":"46.748795",
			"CenterLongitude":"23.599119"
		},
		{
			"RegionID":"861",
			"RegionName":"College Station (and vicinity), Texas, United States of America",
			"CenterLatitude":"30.618309",
			"CenterLongitude":"-96.345459"
		},
		{
			"RegionID":"862",
			"RegionName":"Port Angeles, Washington, United States of America",
			"CenterLatitude":"48.016468",
			"CenterLongitude":"-123.647324"
		},
		{
			"RegionID":"863",
			"RegionName":"Cali (and vicinity), Colombia",
			"CenterLatitude":"3.417272",
			"CenterLongitude":"-76.539040"
		},
		{
			"RegionID":"864",
			"RegionName":"Clarks Point, Alaska, United States of America",
			"CenterLatitude":"58.833725",
			"CenterLongitude":"-158.554367"
		},
		{
			"RegionID":"865",
			"RegionName":"Colima (and vicinity), Colima, Mexico",
			"CenterLatitude":"19.252647",
			"CenterLongitude":"-103.736526"
		},
		{
			"RegionID":"866",
			"RegionName":"Charlotte, North Carolina, United States of America",
			"CenterLatitude":"35.227268",
			"CenterLongitude":"-80.842957"
		},
		{
			"RegionID":"867",
			"RegionName":"Calvi, France",
			"CenterLatitude":"42.567360",
			"CenterLongitude":"8.758850"
		},
		{
			"RegionID":"868",
			"RegionName":"Cunnamulla, Queensland, Australia",
			"CenterLatitude":"-28.059965",
			"CenterLongitude":"145.712677"
		},
		{
			"RegionID":"869",
			"RegionName":"Colombo, Sri Lanka",
			"CenterLatitude":"6.915690",
			"CenterLongitude":"79.863564"
		},
		{
			"RegionID":"870",
			"RegionName":"Cootamundra, New South Wales, Australia",
			"CenterLatitude":"-34.656517",
			"CenterLongitude":"148.019424"
		},
		{
			"RegionID":"871",
			"RegionName":"Ciudad del Carmen, Campeche, Mexico",
			"CenterLatitude":"18.658346",
			"CenterLongitude":"-91.786575"
		},
		{
			"RegionID":"872",
			"RegionName":"Chambery, France",
			"CenterLatitude":"45.566650",
			"CenterLongitude":"5.920920"
		},
		{
			"RegionID":"873",
			"RegionName":"Corumba, Brazil",
			"CenterLatitude":"-19.009562",
			"CenterLongitude":"-57.646339"
		},
		{
			"RegionID":"874",
			"RegionName":"Columbus, Ohio, United States of America",
			"CenterLatitude":"39.961319",
			"CenterLongitude":"-82.999077"
		},
		{
			"RegionID":"875",
			"RegionName":"Champaign, Illinois, United States of America",
			"CenterLatitude":"40.117729",
			"CenterLongitude":"-88.241982"
		},
		{
			"RegionID":"876",
			"RegionName":"Qimei, Taiwan",
			"CenterLatitude":"23.216499",
			"CenterLongitude":"119.423500"
		},
		{
			"RegionID":"877",
			"RegionName":"Club Makokola, Mangochi, Malawi",
			"CenterLatitude":"-14.300994",
			"CenterLongitude":"35.119350"
		},
		{
			"RegionID":"878",
			"RegionName":"Clermont, Queensland, Australia",
			"CenterLatitude":"-22.719803",
			"CenterLongitude":"147.438293"
		},
		{
			"RegionID":"879",
			"RegionName":"Kundiawa, Papua New Guinea",
			"CenterLatitude":"-6.023642",
			"CenterLongitude":"144.960587"
		},
		{
			"RegionID":"880",
			"RegionName":"Camaguey, Cuba",
			"CenterLatitude":"21.375814",
			"CenterLongitude":"-77.890892"
		},
		{
			"RegionID":"881",
			"RegionName":"Hancock, Michigan, United States of America",
			"CenterLatitude":"47.126907",
			"CenterLongitude":"-88.580612"
		},
		{
			"RegionID":"882",
			"RegionName":"Coonamble, New South Wales, Australia",
			"CenterLatitude":"-30.914310",
			"CenterLongitude":"148.357452"
		},
		{
			"RegionID":"883",
			"RegionName":"Constanta (and vicinity), Romania",
			"CenterLatitude":"44.204235",
			"CenterLongitude":"28.623577"
		},
		{
			"RegionID":"884",
			"RegionName":"Cloncurry, Queensland, Australia",
			"CenterLatitude":"-20.525299",
			"CenterLongitude":"140.449020"
		},
		{
			"RegionID":"885",
			"RegionName":"Sindal, Denmark",
			"CenterLatitude":"57.468140",
			"CenterLongitude":"10.256169"
		},
		{
			"RegionID":"886",
			"RegionName":"Carlsbad, New Mexico, United States of America",
			"CenterLatitude":"32.420330",
			"CenterLongitude":"-104.229004"
		},
		{
			"RegionID":"888",
			"RegionName":"Corrientes, Argentina",
			"CenterLatitude":"-27.496693",
			"CenterLongitude":"-58.774998"
		},
		{
			"RegionID":"889",
			"RegionName":"Cairns, Queensland, Australia",
			"CenterLatitude":"-16.922134",
			"CenterLongitude":"145.775711"
		},
		{
			"RegionID":"892",
			"RegionName":"Concordia, Argentina",
			"CenterLatitude":"-31.397402",
			"CenterLongitude":"-58.017277"
		},
		{
			"RegionID":"893",
			"RegionName":"Cody, Wyoming, United States of America",
			"CenterLatitude":"44.526161",
			"CenterLongitude":"-109.062027"
		},
		{
			"RegionID":"894",
			"RegionName":"Coeur d'Alene, Idaho, United States of America",
			"CenterLatitude":"47.674320",
			"CenterLongitude":"-116.781128"
		},
		{
			"RegionID":"895",
			"RegionName":"Condoto, Colombia",
			"CenterLatitude":"5.072724",
			"CenterLongitude":"-76.629784"
		},
		{
			"RegionID":"896",
			"RegionName":"Coonabarabran, New South Wales, Australia",
			"CenterLatitude":"-31.259539",
			"CenterLongitude":"149.291901"
		},
		{
			"RegionID":"897",
			"RegionName":"Cochin, India",
			"CenterLatitude":"9.962697",
			"CenterLongitude":"76.308563"
		},
		{
			"RegionID":"898",
			"RegionName":"Cotonou, Benin",
			"CenterLatitude":"6.359326",
			"CenterLongitude":"2.447859"
		},
		{
			"RegionID":"899",
			"RegionName":"Cordoba, Argentina",
			"CenterLatitude":"-31.418545",
			"CenterLongitude":"-64.188095"
		},
		{
			"RegionID":"900",
			"RegionName":"Colorado Springs, Colorado, United States of America",
			"CenterLatitude":"38.832401",
			"CenterLongitude":"-104.821671"
		},
		{
			"RegionID":"901",
			"RegionName":"Columbia (and vicinity), Missouri, United States of America",
			"CenterLatitude":"38.951550",
			"CenterLongitude":"-92.328629"
		},
		{
			"RegionID":"902",
			"RegionName":"Cape Palmas, Liberia",
			"CenterLatitude":"4.392989",
			"CenterLongitude":"-7.737037"
		},
		{
			"RegionID":"903",
			"RegionName":"San Martin de los Andes (and vicinity), Argentina",
			"CenterLatitude":"-40.155087",
			"CenterLongitude":"-71.354187"
		},
		{
			"RegionID":"904",
			"RegionName":"Coober Pedy, South Australia, Australia",
			"CenterLatitude":"-28.865406",
			"CenterLongitude":"134.948563"
		},
		{
			"RegionID":"905",
			"RegionName":"Campeche, Campeche, Mexico",
			"CenterLatitude":"19.845779",
			"CenterLongitude":"-90.536781"
		},
		{
			"RegionID":"906",
			"RegionName":"Copenhagen, Denmark",
			"CenterLatitude":"55.679672",
			"CenterLongitude":"12.575681"
		},
		{
			"RegionID":"907",
			"RegionName":"Copiapo, Chile",
			"CenterLatitude":"-27.364197",
			"CenterLongitude":"-70.331566"
		},
		{
			"RegionID":"908",
			"RegionName":"Campinas, Brazil",
			"CenterLatitude":"-22.901634",
			"CenterLongitude":"-47.053413"
		},
		{
			"RegionID":"909",
			"RegionName":"Casper, Wyoming, United States of America",
			"CenterLatitude":"42.849770",
			"CenterLongitude":"-106.325142"
		},
		{
			"RegionID":"910",
			"RegionName":"Cape Town, South Africa",
			"CenterLatitude":"-33.922012",
			"CenterLongitude":"18.423134"
		},
		{
			"RegionID":"911",
			"RegionName":"Campina Grande, Brazil",
			"CenterLatitude":"-7.263625",
			"CenterLongitude":"-35.966026"
		},
		{
			"RegionID":"912",
			"RegionName":"Culebra, Puerto Rico",
			"CenterLatitude":"18.315710",
			"CenterLongitude":"-65.286423"
		},
		{
			"RegionID":"913",
			"RegionName":"Comodoro Rivadavia, Argentina",
			"CenterLatitude":"-45.844051",
			"CenterLongitude":"-67.499428"
		},
		{
			"RegionID":"915",
			"RegionName":"Corpus Christi (and vicinity), Texas, United States of America",
			"CenterLatitude":"27.796230",
			"CenterLongitude":"-97.396347"
		},
		{
			"RegionID":"917",
			"RegionName":"Charleston, West Virginia, United States of America",
			"CenterLatitude":"38.349991",
			"CenterLongitude":"-81.634979"
		},
		{
			"RegionID":"918",
			"RegionName":"Columbus, Georgia, United States of America",
			"CenterLatitude":"32.497089",
			"CenterLongitude":"-84.887024"
		},
		{
			"RegionID":"919",
			"RegionName":"Casino, New South Wales, Australia",
			"CenterLatitude":"-28.854176",
			"CenterLongitude":"153.036575"
		},
		{
			"RegionID":"920",
			"RegionName":"Cap Skirring, Senegal",
			"CenterLatitude":"12.395683",
			"CenterLongitude":"-16.740026"
		},
		{
			"RegionID":"922",
			"RegionName":"Changsha, China",
			"CenterLatitude":"28.204533",
			"CenterLongitude":"113.133347"
		},
		{
			"RegionID":"923",
			"RegionName":"Cheboksary, Russia",
			"CenterLatitude":"56.139374",
			"CenterLongitude":"47.227909"
		},
		{
			"RegionID":"924",
			"RegionName":"Catania, Italy",
			"CenterLatitude":"37.502571",
			"CenterLongitude":"15.087130"
		},
		{
			"RegionID":"925",
			"RegionName":"Catamarca, Argentina",
			"CenterLatitude":"-28.528135",
			"CenterLongitude":"-65.772766"
		},
		{
			"RegionID":"926",
			"RegionName":"Cartagena (and vicinity), Colombia",
			"CenterLatitude":"10.423437",
			"CenterLongitude":"-75.549461"
		},
		{
			"RegionID":"927",
			"RegionName":"Charleville, Queensland, Australia",
			"CenterLatitude":"-26.396139",
			"CenterLongitude":"146.296249"
		},
		{
			"RegionID":"928",
			"RegionName":"Chetumal, Quintana Roo, Mexico",
			"CenterLatitude":"18.531031",
			"CenterLongitude":"-88.308296"
		},
		{
			"RegionID":"929",
			"RegionName":"Cooktown, Queensland, Australia",
			"CenterLatitude":"-15.370663",
			"CenterLongitude":"144.994125"
		},
		{
			"RegionID":"930",
			"RegionName":"Chengdu, China",
			"CenterLatitude":"30.660732",
			"CenterLongitude":"104.063347"
		},
		{
			"RegionID":"931",
			"RegionName":"Cucuta, Colombia",
			"CenterLatitude":"7.907297",
			"CenterLongitude":"-72.509079"
		},
		{
			"RegionID":"932",
			"RegionName":"Cuenca (and vicinity), Ecuador",
			"CenterLatitude":"-2.894458",
			"CenterLongitude":"-78.993050"
		},
		{
			"RegionID":"933",
			"RegionName":"Culiacan (and vicinity), Sinaloa, Mexico",
			"CenterLatitude":"24.801111",
			"CenterLongitude":"-107.458771"
		},
		{
			"RegionID":"934",
			"RegionName":"Cumana, Venezuela",
			"CenterLatitude":"10.422836",
			"CenterLongitude":"-64.168480"
		},
		{
			"RegionID":"935",
			"RegionName":"Cancun, Quintana Roo, Mexico",
			"CenterLatitude":"21.163620",
			"CenterLongitude":"-86.825783"
		},
		{
			"RegionID":"936",
			"RegionName":"Carupano, Venezuela",
			"CenterLatitude":"10.659576",
			"CenterLongitude":"-63.257065"
		},
		{
			"RegionID":"937",
			"RegionName":"Willemstad, Curacao",
			"CenterLatitude":"12.116430",
			"CenterLongitude":"-68.929764"
		},
		{
			"RegionID":"938",
			"RegionName":"Cutral, Argentina",
			"CenterLatitude":"-38.924206",
			"CenterLongitude":"-69.131699"
		},
		{
			"RegionID":"939",
			"RegionName":"Chihuahua, Chihuahua, Mexico",
			"CenterLatitude":"28.659489",
			"CenterLongitude":"-106.059280"
		},
		{
			"RegionID":"940",
			"RegionName":"Cue, Western Australia, Australia",
			"CenterLatitude":"-27.448484",
			"CenterLongitude":"117.887642"
		},
		{
			"RegionID":"941",
			"RegionName":"Cusco, Peru",
			"CenterLatitude":"-13.524050",
			"CenterLongitude":"-71.985794"
		},
		{
			"RegionID":"942",
			"RegionName":"Cleve, South Australia, Australia",
			"CenterLatitude":"-33.702953",
			"CenterLongitude":"136.521988"
		},
		{
			"RegionID":"943",
			"RegionName":"Cincinnati, Ohio, United States of America",
			"CenterLatitude":"39.101318",
			"CenterLongitude":"-84.511353"
		},
		{
			"RegionID":"944",
			"RegionName":"Cuernavaca, Morelos, Mexico",
			"CenterLatitude":"18.921225",
			"CenterLongitude":"-99.234863"
		},
		{
			"RegionID":"945",
			"RegionName":"Cape Vogel, Papua New Guinea",
			"CenterLatitude":"-9.706281",
			"CenterLongitude":"150.045197"
		},
		{
			"RegionID":"946",
			"RegionName":"Ciudad Victoria, Tamaulipas, Mexico",
			"CenterLatitude":"23.738852",
			"CenterLongitude":"-99.145676"
		},
		{
			"RegionID":"947",
			"RegionName":"Clovis (and vicinity), New Mexico, United States of America",
			"CenterLatitude":"34.429802",
			"CenterLongitude":"-103.155159"
		},
		{
			"RegionID":"948",
			"RegionName":"Corvallis, Oregon, United States of America",
			"CenterLatitude":"44.563259",
			"CenterLongitude":"-123.260780"
		},
		{
			"RegionID":"949",
			"RegionName":"Carnarvon, Western Australia, Australia",
			"CenterLatitude":"-24.882339",
			"CenterLongitude":"113.670975"
		},
		{
			"RegionID":"950",
			"RegionName":"Corvo Island, Portugal",
			"CenterLatitude":"39.698032",
			"CenterLongitude":"-31.098225"
		},
		{
			"RegionID":"951",
			"RegionName":"Curitiba (and vicinity), Brazil",
			"CenterLatitude":"-25.451778",
			"CenterLongitude":"-49.233624"
		},
		{
			"RegionID":"952",
			"RegionName":"Chernovtsy, Ukraine",
			"CenterLatitude":"48.282307",
			"CenterLongitude":"25.945471"
		},
		{
			"RegionID":"953",
			"RegionName":"Cardiff, Wales, United Kingdom",
			"CenterLatitude":"51.478333",
			"CenterLongitude":"-3.175630"
		},
		{
			"RegionID":"954",
			"RegionName":"Center Island, Washington, United States of America",
			"CenterLatitude":"48.489563",
			"CenterLongitude":"-122.831528"
		},
		{
			"RegionID":"955",
			"RegionName":"Cowra, New South Wales, Australia",
			"CenterLatitude":"-33.827995",
			"CenterLongitude":"148.609680"
		},
		{
			"RegionID":"956",
			"RegionName":"Cox's Bazar, Bangladesh",
			"CenterLatitude":"21.357845",
			"CenterLongitude":"92.010559"
		},
		{
			"RegionID":"957",
			"RegionName":"Caxias do Sul, Brazil",
			"CenterLatitude":"-29.102161",
			"CenterLongitude":"-51.025383"
		},
		{
			"RegionID":"958",
			"RegionName":"Cilacap, Indonesia",
			"CenterLatitude":"-7.699043",
			"CenterLongitude":"109.031845"
		},
		{
			"RegionID":"960",
			"RegionName":"Caye Chapel, Belize",
			"CenterLatitude":"17.692490",
			"CenterLongitude":"-88.021530"
		},
		{
			"RegionID":"961",
			"RegionName":"Chefornak, Alaska, United States of America",
			"CenterLatitude":"60.152859",
			"CenterLongitude":"-164.268417"
		},
		{
			"RegionID":"962",
			"RegionName":"Chiayi City, Taiwan",
			"CenterLatitude":"23.480789",
			"CenterLongitude":"120.447144"
		},
		{
			"RegionID":"963",
			"RegionName":"Cheyenne, Wyoming, United States of America",
			"CenterLatitude":"41.135422",
			"CenterLongitude":"-104.816994"
		},
		{
			"RegionID":"965",
			"RegionName":"Coro, Venezuela",
			"CenterLatitude":"11.398620",
			"CenterLongitude":"-69.678467"
		},
		{
			"RegionID":"966",
			"RegionName":"Corozal, Belize",
			"CenterLatitude":"18.420177",
			"CenterLongitude":"-88.384705"
		},
		{
			"RegionID":"967",
			"RegionName":"Constantine, Algeria",
			"CenterLatitude":"36.328125",
			"CenterLongitude":"6.604423"
		},
		{
			"RegionID":"969",
			"RegionName":"Chisana, Alaska, United States of America",
			"CenterLatitude":"62.897640",
			"CenterLongitude":"-141.629074"
		},
		{
			"RegionID":"970",
			"RegionName":"Cruzeiro do Sul, Brazil",
			"CenterLatitude":"-7.973339",
			"CenterLongitude":"-72.758026"
		},
		{
			"RegionID":"971",
			"RegionName":"Changzhou, China",
			"CenterLatitude":"31.628942",
			"CenterLongitude":"119.631721"
		},
		{
			"RegionID":"972",
			"RegionName":"Daytona Beach, Florida, United States of America",
			"CenterLatitude":"29.212311",
			"CenterLongitude":"-81.019386"
		},
		{
			"RegionID":"973",
			"RegionName":"Dhaka, Bangladesh",
			"CenterLatitude":"23.780607",
			"CenterLongitude":"90.407959"
		},
		{
			"RegionID":"974",
			"RegionName":"Da Nang (and vicinity), Vietnam",
			"CenterLatitude":"16.060760",
			"CenterLongitude":"108.217041"
		},
		{
			"RegionID":"977",
			"RegionName":"Danville, Virginia, United States of America",
			"CenterLatitude":"36.587692",
			"CenterLongitude":"-79.392624"
		},
		{
			"RegionID":"978",
			"RegionName":"Dar es Salaam, Tanzania",
			"CenterLatitude":"-6.821316",
			"CenterLongitude":"39.283970"
		},
		{
			"RegionID":"979",
			"RegionName":"Datong, China",
			"CenterLatitude":"39.895222",
			"CenterLongitude":"113.710976"
		},
		{
			"RegionID":"980",
			"RegionName":"Daru, Papua New Guinea",
			"CenterLatitude":"-9.076698",
			"CenterLongitude":"143.207916"
		},
		{
			"RegionID":"981",
			"RegionName":"Dayton, Ohio, United States of America",
			"CenterLatitude":"39.761009",
			"CenterLongitude":"-84.192261"
		},
		{
			"RegionID":"982",
			"RegionName":"Dalbandin, Pakistan",
			"CenterLatitude":"28.872162",
			"CenterLongitude":"64.444511"
		},
		{
			"RegionID":"983",
			"RegionName":"Debra Marcos, Ethiopia",
			"CenterLatitude":"10.323972",
			"CenterLongitude":"37.735790"
		},
		{
			"RegionID":"984",
			"RegionName":"Dubbo, New South Wales, Australia",
			"CenterLatitude":"-32.279022",
			"CenterLongitude":"148.601517"
		},
		{
			"RegionID":"985",
			"RegionName":"Dubuque (and vicinity), Iowa, United States of America",
			"CenterLatitude":"42.503677",
			"CenterLongitude":"-90.665657"
		},
		{
			"RegionID":"986",
			"RegionName":"Dubrovnik, Croatia",
			"CenterLatitude":"42.640671",
			"CenterLongitude":"18.110531"
		},
		{
			"RegionID":"987",
			"RegionName":"Dalby, Queensland, Australia",
			"CenterLatitude":"-27.182098",
			"CenterLongitude":"151.265259"
		},
		{
			"RegionID":"988",
			"RegionName":"Castres, France",
			"CenterLatitude":"43.605480",
			"CenterLongitude":"2.241760"
		},
		{
			"RegionID":"989",
			"RegionName":"Dodge City, Kansas, United States of America",
			"CenterLatitude":"37.746563",
			"CenterLongitude":"-100.018684"
		},
		{
			"RegionID":"990",
			"RegionName":"Dandong, China",
			"CenterLatitude":"40.529194",
			"CenterLongitude":"124.391388"
		},
		{
			"RegionID":"992",
			"RegionName":"Decatur (and vicinity), Illinois, United States of America",
			"CenterLatitude":"39.841621",
			"CenterLongitude":"-88.949608"
		},
		{
			"RegionID":"993",
			"RegionName":"Denis Island, Seychelles",
			"CenterLatitude":"-3.806183",
			"CenterLongitude":"55.671528"
		},
		{
			"RegionID":"995",
			"RegionName":"Dembi Dolo, Ethiopia",
			"CenterLatitude":"8.521904",
			"CenterLongitude":"34.805283"
		},
		{
			"RegionID":"996",
			"RegionName":"Denver, Colorado, United States of America",
			"CenterLatitude":"39.747921",
			"CenterLongitude":"-104.995697"
		},
		{
			"RegionID":"997",
			"RegionName":"Derim, Papua New Guinea",
			"CenterLatitude":"-6.177594",
			"CenterLongitude":"144.902847"
		},
		{
			"RegionID":"998",
			"RegionName":"Desroches Island, Seychelles",
			"CenterLatitude":"-5.696703",
			"CenterLongitude":"53.666664"
		},
		{
			"RegionID":"1000",
			"RegionName":"Dallas, Texas, United States of America",
			"CenterLatitude":"32.782661",
			"CenterLongitude":"-96.798439"
		},
		{
			"RegionID":"1001",
			"RegionName":"Degahbur, Ethiopia",
			"CenterLatitude":"8.214003",
			"CenterLongitude":"43.562576"
		},
		{
			"RegionID":"1002",
			"RegionName":"Mudgee Wine Region, New South Wales, Australia",
			"CenterLatitude":"-32.572777",
			"CenterLongitude":"149.592072"
		},
		{
			"RegionID":"1003",
			"RegionName":"Durango, Durango, Mexico",
			"CenterLatitude":"24.038519",
			"CenterLongitude":"-104.661301"
		},
		{
			"RegionID":"1004",
			"RegionName":"Dumaguete, Philippines",
			"CenterLatitude":"9.298795",
			"CenterLongitude":"123.284195"
		},
		{
			"RegionID":"1005",
			"RegionName":"Dhahran, Saudi Arabia",
			"CenterLatitude":"26.187336",
			"CenterLongitude":"50.033554"
		},
		{
			"RegionID":"1006",
			"RegionName":"Dothan (and vicinity), Alabama, United States of America",
			"CenterLatitude":"31.223789",
			"CenterLongitude":"-85.393539"
		},
		{
			"RegionID":"1007",
			"RegionName":"Dibrugarh, India",
			"CenterLatitude":"27.478928",
			"CenterLongitude":"94.908806"
		},
		{
			"RegionID":"1008",
			"RegionName":"Antsiranana, Madagascar",
			"CenterLatitude":"-12.291912",
			"CenterLongitude":"49.341347"
		},
		{
			"RegionID":"1009",
			"RegionName":"Dijon, France",
			"CenterLatitude":"47.321369",
			"CenterLongitude":"5.041420"
		},
		{
			"RegionID":"1010",
			"RegionName":"Dickinson, North Dakota, United States of America",
			"CenterLatitude":"46.862534",
			"CenterLongitude":"-102.810242"
		},
		{
			"RegionID":"1012",
			"RegionName":"Dien Bien Phu, Vietnam",
			"CenterLatitude":"21.383499",
			"CenterLongitude":"103.003502"
		},
		{
			"RegionID":"1013",
			"RegionName":"Little Diomede Island, Alaska, United States of America",
			"CenterLatitude":"65.754913",
			"CenterLongitude":"-168.922470"
		},
		{
			"RegionID":"1014",
			"RegionName":"Dire Dawa, Ethiopia",
			"CenterLatitude":"9.584701",
			"CenterLongitude":"41.869560"
		},
		{
			"RegionID":"1015",
			"RegionName":"Loubomo, Republic of the Congo",
			"CenterLatitude":"-4.203549",
			"CenterLongitude":"12.674997"
		},
		{
			"RegionID":"1016",
			"RegionName":"Diyarbakir, Turkey",
			"CenterLatitude":"37.927399",
			"CenterLongitude":"40.192581"
		},
		{
			"RegionID":"1017",
			"RegionName":"Jambi, Indonesia",
			"CenterLatitude":"-1.601048",
			"CenterLongitude":"103.609314"
		},
		{
			"RegionID":"1018",
			"RegionName":"Djerba, Tunisia",
			"CenterLatitude":"33.790062",
			"CenterLongitude":"10.884918"
		},
		{
			"RegionID":"1019",
			"RegionName":"Djanet, Algeria",
			"CenterLatitude":"24.552570",
			"CenterLongitude":"9.485183"
		},
		{
			"RegionID":"1020",
			"RegionName":"Jayapura, Indonesia",
			"CenterLatitude":"-2.568801",
			"CenterLongitude":"140.696671"
		},
		{
			"RegionID":"1021",
			"RegionName":"Delta Junction, Alaska, United States of America",
			"CenterLatitude":"64.039818",
			"CenterLongitude":"-145.664871"
		},
		{
			"RegionID":"1023",
			"RegionName":"Dunk Island, Queensland, Cassowary Coast Regional, Australia",
			"CenterLatitude":"-17.941826",
			"CenterLongitude":"146.161438"
		},
		{
			"RegionID":"1024",
			"RegionName":"Dakar, Senegal",
			"CenterLatitude":"14.719786",
			"CenterLongitude":"-17.451614"
		},
		{
			"RegionID":"1025",
			"RegionName":"Douala, Cameroon",
			"CenterLatitude":"4.020610",
			"CenterLongitude":"9.761160"
		},
		{
			"RegionID":"1026",
			"RegionName":"Dalian, China",
			"CenterLatitude":"39.336414",
			"CenterLongitude":"122.180206"
		},
		{
			"RegionID":"1027",
			"RegionName":"Geilo, Hol, Norway",
			"CenterLatitude":"60.534672",
			"CenterLongitude":"8.206245"
		},
		{
			"RegionID":"1028",
			"RegionName":"Dillingham, Alaska, United States of America",
			"CenterLatitude":"59.041161",
			"CenterLongitude":"-158.468536"
		},
		{
			"RegionID":"1029",
			"RegionName":"Duluth (and vicinity), Minnesota, United States of America",
			"CenterLatitude":"46.788101",
			"CenterLongitude":"-92.100052"
		},